[
{ "type": "Feature", "properties": { "ObjectID": 1, "X": 13479585.054006999, "Y": 307158.55808500003, "Name": "Wright & Company", "Street_Address": "1500 Woodward Ave", "City_1": "Detroit", "State_1": "MI", "Zip_1": "48226", "Phone_Number": "(313) 962-7711" }, "geometry": { "type": "Point", "coordinates": [ -83.049094311802705, 42.335199784998402 ] } },
{ "type": "Feature", "properties": { "ObjectID": 2, "X": 13479804.455455, "Y": 304651.70119200001, "Name": "The Apparatus Room", "Street_Address": "250 W Larned St", "City_1": "Detroit", "State_1": "MI", "Zip_1": "48226", "Phone_Number": "(313) 800-5600" }, "geometry": { "type": "Point", "coordinates": [ -83.048428109211699, 42.328312129080501 ] } },
{ "type": "Feature", "properties": { "ObjectID": 3, "X": 13479915.289841, "Y": 305509.09180900001, "Name": "Dime Store", "Street_Address": "719 Griswold St", "City_1": "Detroit", "State_1": "MI", "Zip_1": "48226", "Phone_Number": "(313) 962-9106" }, "geometry": { "type": "Point", "coordinates": [ -83.047968617267003, 42.330659846860698 ] } },
{ "type": "Feature", "properties": { "ObjectID": 4, "X": 13480429.421668001, "Y": 306826.88480699999, "Name": "Standby", "Street_Address": "225 Gratiot Ave", "City_1": "Detroit", "State_1": "MI", "Zip_1": "48226", "Phone_Number": "(313) 736-5533" }, "geometry": { "type": "Point", "coordinates": [ -83.045991000507698, 42.334253449632499 ] } },
{ "type": "Feature", "properties": { "ObjectID": 5, "X": 13475217.216069, "Y": 311673.32829600002, "Name": "Selden Standard", "Street_Address": "3921 2nd Ave", "City_1": "Detroit", "State_1": "MI", "Zip_1": "48201", "Phone_Number": "(313) 438-5055" }, "geometry": { "type": "Point", "coordinates": [ -83.064988905196699, 42.347773714005598 ] } },
{ "type": "Feature", "properties": { "ObjectID": 6, "X": 13477998.536180001, "Y": 307065.12601599999, "Name": "Republic", "Street_Address": "1942 Grand River Ave", "City_1": "Detroit", "State_1": "MI", "Zip_1": "48226", "Phone_Number": "(313) 446-8360" }, "geometry": { "type": "Point", "coordinates": [ -83.054966803328199, 42.335011405255997 ] } },
{ "type": "Feature", "properties": { "ObjectID": 8, "X": 13480214.273986001, "Y": 305837.73428500001, "Name": "Parc", "Street_Address": "800 Woodward Ave", "City_1": "Detroit", "State_1": "MI", "Zip_1": "48226", "Phone_Number": "(313) 922-7272" }, "geometry": { "type": "Point", "coordinates": [ -83.046843972343893, 42.331548709459099 ] } },
{ "type": "Feature", "properties": { "ObjectID": 9, "X": 13477754.544622, "Y": 310717.35747400002, "Name": "Grey Ghost Detroit", "Street_Address": "47 Watson St", "City_1": "Detroit", "State_1": "MI", "Zip_1": "48201", "Phone_Number": "(313) 262-6534" }, "geometry": { "type": "Point", "coordinates": [ -83.055658776688205, 42.345042718231802 ] } },
{ "type": "Feature", "properties": { "ObjectID": 10, "X": 13475394.260523001, "Y": 305151.81763300003, "Name": "Lady Of The House", "Street_Address": "1426 Bagley Ave", "City_1": "Detroit", "State_1": "MI", "Zip_1": "48216", "Phone_Number": "(313) 818-0218" }, "geometry": { "type": "Point", "coordinates": [ -83.064707098154003, 42.329872642415303 ] } },
{ "type": "Feature", "properties": { "ObjectID": 11, "X": 13478780.827485999, "Y": 307622.30686499999, "Name": "Rusted Crow Detroit", "Street_Address": "78 W Adams Ave", "City_1": "Detroit", "State_1": "MI", "Zip_1": "48226", "Phone_Number": "(313) 782-4751" }, "geometry": { "type": "Point", "coordinates": [ -83.052041643046607, 42.336506700255399 ] } },
{ "type": "Feature", "properties": { "ObjectID": 12, "X": 13480068.333588, "Y": 307594.83042700001, "Name": "Vertical Detroit", "Street_Address": "1538 Centre St", "City_1": "Detroit", "State_1": "MI", "Zip_1": "48226", "Phone_Number": "(313) 732-9463" }, "geometry": { "type": "Point", "coordinates": [ -83.0472818113752, 42.336376047287999 ] } },
{ "type": "Feature", "properties": { "ObjectID": 13, "X": 13479052.847475, "Y": 305963.56050800002, "Name": "Roast", "Street_Address": "1128 Washington Blvd", "City_1": "Detroit", "State_1": "MI", "Zip_1": "48226", "Phone_Number": "(313) 961-2500" }, "geometry": { "type": "Point", "coordinates": [ -83.050532935800405, 42.3322732514686 ] } },
{ "type": "Feature", "properties": { "ObjectID": 14, "X": 13478727.496805999, "Y": 306800.17970899999, "Name": "SavannahBlue", "Street_Address": "1431 Times Square", "City_1": "Detroit", "State_1": "MI", "Zip_1": "48226", "Phone_Number": "(313) 926-0783" }, "geometry": { "type": "Point", "coordinates": [ -83.052286338256195, 42.334253258629502 ] } },
{ "type": "Feature", "properties": { "ObjectID": 15, "X": 13475815.820210001, "Y": 304611.82906824403, "Name": "Batch Brewing Company", "Street_Address": "1400 Porter St", "City_1": "Detroit", "State_1": "MI", "Zip_1": "48216", "Phone_Number": "(313) 338-8008" }, "geometry": { "type": "Point", "coordinates": [ -83.063179173964699, 42.328373136831502 ] } },
{ "type": "Feature", "properties": { "ObjectID": 16, "X": 13476158.897995001, "Y": 304818.174206, "Name": "Mudgie’s Deli & Wine Shop", "Street_Address": "1300 Porter St", "City_1": "Detroit", "State_1": "MI", "Zip_1": "48226", "Phone_Number": "(313) 961-2000" }, "geometry": { "type": "Point", "coordinates": [ -83.061898748447803, 42.3289247192413 ] } },
{ "type": "Feature", "properties": { "ObjectID": 17, "X": 13471021.796499999, "Y": 305732.13903299998, "Name": "Takoi", "Street_Address": "2520 Michigan Ave", "City_1": "Detroit", "State_1": "MI", "Zip_1": "48216", "Phone_Number": null }, "geometry": { "type": "Point", "coordinates": [ -83.080842844535994, 42.331649304273398 ] } },
{ "type": "Feature", "properties": { "ObjectID": 18, "X": 13480182.004991001, "Y": 306933.710227, "Name": "Vicente’s Cuban Cuisine", "Street_Address": "1250 Library St", "City_1": "Detroit", "State_1": "MI", "Zip_1": "48226", "Phone_Number": "(313) 962-8800" }, "geometry": { "type": "Point", "coordinates": [ -83.046899764687097, 42.334557199600702 ] } },
{ "type": "Feature", "properties": { "ObjectID": 19, "X": 13479205.225612, "Y": 305520.02226699999, "Name": "Wala", "Street_Address": "1010 Washington Blvd", "City_1": "Detroit", "State_1": "MI", "Zip_1": "48226", "Phone_Number": "(313) 963-5450" }, "geometry": { "type": "Point", "coordinates": [ -83.0505305617489, 42.330744606650697 ] } },
{ "type": "Feature", "properties": { "ObjectID": 20, "X": 13479625.030378999, "Y": 307089.51596400002, "Name": "Cornerstone Barrel House", "Street_Address": "1456 Woodward Ave", "City_1": "Detroit", "State_1": "MI", "Zip_1": "48226", "Phone_Number": "(313) 338-3238" }, "geometry": { "type": "Point", "coordinates": [ -83.049012043113905, 42.334943834511101 ] } },
{ "type": "Feature", "properties": { "ObjectID": 21, "X": 13479749.979907, "Y": 305474.04683599999, "Name": "Maru Sushi & Grill Detroit", "Street_Address": "160 W Fort St", "City_1": "Detroit", "State_1": "MI", "Zip_1": "48226", "Phone_Number": "(313) 315-3100" }, "geometry": { "type": "Point", "coordinates": [ -83.048581933509993, 42.3305707948169 ] } },
{ "type": "Feature", "properties": { "ObjectID": 22, "X": 13473611.061663, "Y": 302201.05944300001, "Name": "Green Dot Stables", "Street_Address": "2200 W Lafayette Blvd", "City_1": "Detroit", "State_1": "MI", "Zip_1": "48216", "Phone_Number": null }, "geometry": { "type": "Point", "coordinates": [ -83.071468879058003, 42.3218518896619 ] } },
{ "type": "Feature", "properties": { "ObjectID": 23, "X": 13480047.001921, "Y": 304968.81884399999, "Name": "London Chop House", "Street_Address": "155 W Congress St", "City_1": "Detroit", "State_1": "MI", "Zip_1": "48226", "Phone_Number": "(313) 962-0277" }, "geometry": { "type": "Point", "coordinates": [ -83.047512872841196, 42.329171802060998 ] } },
{ "type": "Feature", "properties": { "ObjectID": 24, "X": 13475295.30714, "Y": 304106.49047100003, "Name": "Red Dunn Kitchen", "Street_Address": "1331 Trumbull Ave", "City_1": "Detroit", "State_1": "MI", "Zip_1": "48216", "Phone_Number": "(313) 887-9477" }, "geometry": { "type": "Point", "coordinates": [ -83.065132767419797, 42.327008697727102 ] } },
{ "type": "Feature", "properties": { "ObjectID": 25, "X": 13480038.345905, "Y": 305144.736752, "Name": "Caucus Club", "Street_Address": "150 W Congress St", "City_1": "Detroit", "State_1": "MI", "Zip_1": "48226", "Phone_Number": "(313) 965-4970" }, "geometry": { "type": "Point", "coordinates": [ -83.047534688284401, 42.329654852104497 ] } },
{ "type": "Feature", "properties": { "ObjectID": 26, "X": 13475657.734398, "Y": 312515.34196699999, "Name": "Royale with Cheese", "Street_Address": "4163 Cass Ave", "City_1": "Detroit", "State_1": "MI", "Zip_1": "48201", "Phone_Number": "(313) 315-3014" }, "geometry": { "type": "Point", "coordinates": [ -83.063311274297803, 42.350065308544401 ] } },
{ "type": "Feature", "properties": { "ObjectID": 27, "X": 13472905.782685, "Y": 305576.84576400003, "Name": "ima", "Street_Address": "2015 Michigan Ave", "City_1": "Detroit", "State_1": "MI", "Zip_1": "48216", "Phone_Number": null }, "geometry": { "type": "Point", "coordinates": [ -83.073884858664798, 42.331144047042599 ] } },
{ "type": "Feature", "properties": { "ObjectID": 28, "X": 13475096.651136, "Y": 305817.07276800001, "Name": "Ottava Via", "Street_Address": "1400 Michigan Ave", "City_1": "Detroit", "State_1": "MI", "Zip_1": "48216", "Phone_Number": "(313) 962-5500" }, "geometry": { "type": "Point", "coordinates": [ -83.065769583253001, 42.331710576889499 ] } },
{ "type": "Feature", "properties": { "ObjectID": 29, "X": 13480519.842654999, "Y": 305685.00463099999, "Name": "Central Kitchen + Bar", "Street_Address": "660 Woodward Ave", "City_1": "Detroit", "State_1": "MI", "Zip_1": "48226", "Phone_Number": "(313) 963-9000" }, "geometry": { "type": "Point", "coordinates": [ -83.045722877894804, 42.3311165053235 ] } },
{ "type": "Feature", "properties": { "ObjectID": 30, "X": 13479782.110408001, "Y": 305796.132659, "Name": "Lafayette Coney Island", "Street_Address": "118 W Lafayette Blvd", "City_1": "Detroit", "State_1": "MI", "Zip_1": "48226", "Phone_Number": "(313) 964-8198" }, "geometry": { "type": "Point", "coordinates": [ -83.0488945766066, 42.3314241636551 ] } },
{ "type": "Feature", "properties": { "ObjectID": 31, "X": 13476176.431542, "Y": 313103.35878900002, "Name": "2941 Street Food", "Street_Address": "4219 Woodward Ave", "City_1": "Detroit", "State_1": "MI", "Zip_1": "48201", "Phone_Number": "(313) 338-3466" }, "geometry": { "type": "Point", "coordinates": [ -83.0613588963474, 42.351656644210202 ] } },
{ "type": "Feature", "properties": { "ObjectID": 32, "X": 13482358.9376, "Y": 304876.434603, "Name": "Joe Muer Seafood", "Street_Address": "400 Renaissance Ctr", "City_1": "Detroit", "State_1": "MI", "Zip_1": "48243", "Phone_Number": "(313) 567-6837" }, "geometry": { "type": "Point", "coordinates": [ -83.038969333293494, 42.328818601662803 ] } },
{ "type": "Feature", "properties": { "ObjectID": 33, "X": 13483779.178343, "Y": 306596.43389300001, "Name": "The Clique Restaurant", "Street_Address": "1326 E Jefferson Ave", "City_1": "Detroit", "State_1": "MI", "Zip_1": "48207", "Phone_Number": null }, "geometry": { "type": "Point", "coordinates": [ -83.033616984186295, 42.333476288224198 ] } },
{ "type": "Feature", "properties": { "ObjectID": 34, "X": 13480737.63167, "Y": 305301.42881900002, "Name": "Townhouse", "Street_Address": "500 Woodward Ave", "City_1": "Detroit", "State_1": "MI", "Zip_1": "48226", "Phone_Number": "(313) 723-1000" }, "geometry": { "type": "Point", "coordinates": [ -83.044939794713699, 42.330054684314099 ] } },
{ "type": "Feature", "properties": { "ObjectID": 35, "X": 13479619.844393, "Y": 306260.48531299998, "Name": "La Lanterna", "Street_Address": "1224 Griswold St", "City_1": "Detroit", "State_1": "MI", "Zip_1": "48226", "Phone_Number": "(313) 962-8821" }, "geometry": { "type": "Point", "coordinates": [ -83.049017635198297, 42.332734188062702 ] } },
{ "type": "Feature", "properties": { "ObjectID": 36, "X": 13479732.697124001, "Y": 306485.50486699998, "Name": "The Hudson Cafe", "Street_Address": "1241 Woodward Ave", "City_1": "Detroit", "State_1": "MI", "Zip_1": "48226", "Phone_Number": "(313) 237-1000" }, "geometry": { "type": "Point", "coordinates": [ -83.0485872830712, 42.333346742521101 ] } },
{ "type": "Feature", "properties": { "ObjectID": 37, "X": 13476325.068396, "Y": 313166.27097499999, "Name": "Rock City Eatery", "Street_Address": "4216 Woodward Ave", "City_1": "Detroit", "State_1": "MI", "Zip_1": "48201", "Phone_Number": "(313) 265-3729" }, "geometry": { "type": "Point", "coordinates": [ -83.060805465568393, 42.351822935960399 ] } },
{ "type": "Feature", "properties": { "ObjectID": 38, "X": 13481139.732651999, "Y": 307035.995414, "Name": "Firebird Tavern", "Street_Address": "419 Monroe St", "City_1": "Detroit", "State_1": "MI", "Zip_1": "48226", "Phone_Number": "(313) 782-4189" }, "geometry": { "type": "Point", "coordinates": [ -83.043352086837899, 42.334796595408001 ] } },
{ "type": "Feature", "properties": { "ObjectID": 39, "X": 13479310.865462, "Y": 307017.98525600001, "Name": "Downtown Louie’s", "Street_Address": "30 Clifford St", "City_1": "Detroit", "State_1": "MI", "Zip_1": "48226", "Phone_Number": "(313) 961-1600" }, "geometry": { "type": "Point", "coordinates": [ -83.050116418644905, 42.334825855425898 ] } },
{ "type": "Feature", "properties": { "ObjectID": 40, "X": 13482572.27208, "Y": 310470.79193100001, "Name": "Gather", "Street_Address": "1454 Gratiot Ave", "City_1": "Detroit", "State_1": "MI", "Zip_1": "48207", "Phone_Number": null }, "geometry": { "type": "Point", "coordinates": [ -83.037853965706105, 42.344158950422901 ] } },
{ "type": "Feature", "properties": { "ObjectID": 41, "X": 13474852.861012001, "Y": 316286.903231, "Name": "Chartreuse", "Street_Address": "15 E Kirby St", "City_1": "Detroit", "State_1": "MI", "Zip_1": "48202", "Phone_Number": "(313) 818-3915" }, "geometry": { "type": "Point", "coordinates": [ -83.066072966545207, 42.360447776445604 ] } },
{ "type": "Feature", "properties": { "ObjectID": 42, "X": 13480519.842654999, "Y": 305685.00463099999, "Name": "Roasting Plant - Detroit", "Street_Address": "660 Woodward Ave", "City_1": "Detroit", "State_1": "MI", "Zip_1": "48226", "Phone_Number": "(313) 782-4291" }, "geometry": { "type": "Point", "coordinates": [ -83.045722877894804, 42.3311165053235 ] } },
{ "type": "Feature", "properties": { "ObjectID": 43, "X": 13480519.842654999, "Y": 305685.00463099999, "Name": "Shake Shack", "Street_Address": "660 Woodward Ave", "City_1": "Detroit", "State_1": "MI", "Zip_1": "48226", "Phone_Number": "(313) 672-0501" }, "geometry": { "type": "Point", "coordinates": [ -83.045722877894804, 42.3311165053235 ] } },
{ "type": "Feature", "properties": { "ObjectID": 44, "X": 13479929.936526, "Y": 306157.56179000001, "Name": "Avalon Cafe and Bakery", "Street_Address": "1049 Woodward Ave", "City_1": "Detroit", "State_1": "MI", "Zip_1": "48226", "Phone_Number": "(313) 285-8006" }, "geometry": { "type": "Point", "coordinates": [ -83.047983222545895, 42.332658773944303 ] } },
{ "type": "Feature", "properties": { "ObjectID": 45, "X": 13480275.686437, "Y": 307617.501322, "Name": "Colors", "Street_Address": "311 E Grand River Ave", "City_1": "Detroit", "State_1": "MI", "Zip_1": "48226", "Phone_Number": "(313) 496-1212" }, "geometry": { "type": "Point", "coordinates": [ -83.046652245283994, 42.336329695226802 ] } },
{ "type": "Feature", "properties": { "ObjectID": 46, "X": 13481497.874503, "Y": 306126.36096800002, "Name": "Jacoby’s German Biergarten", "Street_Address": "624 Brush St", "City_1": "Detroit", "State_1": "MI", "Zip_1": "48226", "Phone_Number": "(313) 962-7067" }, "geometry": { "type": "Point", "coordinates": [ -83.042080580976304, 42.332285319128303 ] } },
{ "type": "Feature", "properties": { "ObjectID": 47, "X": 13478624.654033, "Y": 307657.06628899998, "Name": "Gogo’s", "Street_Address": "2040 Park Ave", "City_1": "Detroit", "State_1": "MI", "Zip_1": "48226", "Phone_Number": "(313) 672-4646" }, "geometry": { "type": "Point", "coordinates": [ -83.052617193174001, 42.336608762244097 ] } },
{ "type": "Feature", "properties": { "ObjectID": 48, "X": 13477998.536180001, "Y": 307065.12601599999, "Name": "Parks & Rec Diner", "Street_Address": "1942 Grand River Ave", "City_1": "Detroit", "State_1": "MI", "Zip_1": "48226", "Phone_Number": "(313) 446-8370" }, "geometry": { "type": "Point", "coordinates": [ -83.054966803328199, 42.335011405255997 ] } },
{ "type": "Feature", "properties": { "ObjectID": 49, "X": 13473775.705444001, "Y": 305688.67086900002, "Name": "Bobcat Bonnie’s", "Street_Address": "1800 Michigan Ave", "City_1": "Detroit", "State_1": "MI", "Zip_1": "48216", "Phone_Number": "(313) 962-1383" }, "geometry": { "type": "Point", "coordinates": [ -83.070661628654506, 42.331414171489101 ] } },
{ "type": "Feature", "properties": { "ObjectID": 51, "X": 13478145.040375, "Y": 309597.62635600002, "Name": "Kid Rocks Made In Detroit", "Street_Address": "2645 Woodward Ave", "City_1": "Detroit", "State_1": "MI", "Zip_1": "48201", "Phone_Number": "(313) 462-8620" }, "geometry": { "type": "Point", "coordinates": [ -83.054279018492295, 42.341953739093697 ] } },
{ "type": "Feature", "properties": { "ObjectID": 52, "X": 13480252.121641999, "Y": 306290.08644500002, "Name": "Texas de Brazil", "Street_Address": "1000 Woodward Ave", "City_1": "Detroit", "State_1": "MI", "Zip_1": "48226", "Phone_Number": "(313) 964-4333" }, "geometry": { "type": "Point", "coordinates": [ -83.046974263603602, 42.3323723884291 ] } },
{ "type": "Feature", "properties": { "ObjectID": 53, "X": 13482018.959935, "Y": 310922.74345100002, "Name": "Supino Pizzeria", "Street_Address": "2457 Russell St", "City_1": "Detroit", "State_1": "MI", "Zip_1": "48207", "Phone_Number": "(313) 567-7879" }, "geometry": { "type": "Point", "coordinates": [ -83.039874113750798, 42.345422942290597 ] } },
{ "type": "Feature", "properties": { "ObjectID": 55, "X": 13479223.221873, "Y": 307037.28485200001, "Name": "La Pecora Nera", "Street_Address": "1514 Washington Blvd", "City_1": "Detroit", "State_1": "MI", "Zip_1": "48226", "Phone_Number": "(313) 315-3040" }, "geometry": { "type": "Point", "coordinates": [ -83.050439416041598, 42.334882569094802 ] } },
{ "type": "Feature", "properties": { "ObjectID": 56, "X": 13482492.703369999, "Y": 310339.42446399998, "Name": "Antietam", "Street_Address": "1428 Gratiot", "City_1": "Detroit", "State_1": "MI", "Zip_1": "48207", "Phone_Number": null }, "geometry": { "type": "Point", "coordinates": [ -83.0381559272884, 42.343801955052101 ] } },
{ "type": "Feature", "properties": { "ObjectID": 57, "X": 13475690.542567, "Y": 305822.595477, "Name": "Brooklyn Street Local", "Street_Address": "1266 Michigan Ave", "City_1": "Detroit", "State_1": "MI", "Zip_1": "48226", "Phone_Number": "(313) 262-6547" }, "geometry": { "type": "Point", "coordinates": [ -83.063573114435599, 42.331700528417102 ] } },
{ "type": "Feature", "properties": { "ObjectID": 58, "X": 13478391.476306999, "Y": 304258.76996599999, "Name": "Tommy’s Detroit Bar & Grill", "Street_Address": "624 3rd St", "City_1": "Detroit", "State_1": "MI", "Zip_1": "48226", "Phone_Number": "(313) 965-2269" }, "geometry": { "type": "Point", "coordinates": [ -83.053675534954394, 42.327294602983102 ] } },
{ "type": "Feature", "properties": { "ObjectID": 59, "X": 13480859.049564, "Y": 307287.79755800002, "Name": "Basement Burger Bar", "Street_Address": "1326 Brush St", "City_1": "Detroit", "State_1": "MI", "Zip_1": "48226", "Phone_Number": "(313) 818-3708" }, "geometry": { "type": "Point", "coordinates": [ -83.044375447273396, 42.335499582207198 ] } },
{ "type": "Feature", "properties": { "ObjectID": 60, "X": 13482358.9376, "Y": 304876.434603, "Name": "Andiamo Detroit Riverfront", "Street_Address": "400 Renaissance Ctr", "City_1": "Detroit", "State_1": "MI", "Zip_1": "48243", "Phone_Number": "(313) 567-6700" }, "geometry": { "type": "Point", "coordinates": [ -83.038969333293494, 42.328818601662803 ] } },
{ "type": "Feature", "properties": { "ObjectID": 61, "X": 13480208.551409001, "Y": 307321.34720600001, "Name": "Jose’s Tacos", "Street_Address": "218 E Grand River", "City_1": "Detroit", "State_1": "MI", "Zip_1": "48226", "Phone_Number": "(313) 965-9992" }, "geometry": { "type": "Point", "coordinates": [ -83.046655668525304, 42.3355735381054 ] } },
{ "type": "Feature", "properties": { "ObjectID": 62, "X": 13481599.043195, "Y": 305899.28139100003, "Name": "Sweetwater Tavern", "Street_Address": "400 E Congress St", "City_1": "Detroit", "State_1": "MI", "Zip_1": "48226", "Phone_Number": "(313) 962-2210" }, "geometry": { "type": "Point", "coordinates": [ -83.041719681869907, 42.331657898806 ] } },
{ "type": "Feature", "properties": { "ObjectID": 63, "X": 13481691.732628999, "Y": 306958.66223800002, "Name": "Prism", "Street_Address": "555 E Lafayette St", "City_1": "Detroit", "State_1": "MI", "Zip_1": "48226", "Phone_Number": "(313) 309-2499" }, "geometry": { "type": "Point", "coordinates": [ -83.041315254319301, 42.334560586345802 ] } },
{ "type": "Feature", "properties": { "ObjectID": 64, "X": 13480184.027979, "Y": 307277.01186099998, "Name": "Chubby Duck Detroit", "Street_Address": "208 E Grand River Ave", "City_1": "Detroit", "State_1": "MI", "Zip_1": "48226", "Phone_Number": "(313) 400-5414" }, "geometry": { "type": "Point", "coordinates": [ -83.046744792267305, 42.335458854563903 ] } },
{ "type": "Feature", "properties": { "ObjectID": 65, "X": 13481580.829575, "Y": 307305.00332100003, "Name": "PizzaPapalis of Greektown", "Street_Address": "553 Monroe St", "City_1": "Detroit", "State_1": "MI", "Zip_1": "48226", "Phone_Number": "(313) 961-8020" }, "geometry": { "type": "Point", "coordinates": [ -83.041705221787396, 42.335515653591699 ] } },
{ "type": "Feature", "properties": { "ObjectID": 66, "X": 13481703.0222, "Y": 307172.45704900002, "Name": "Pegasus Taverna", "Street_Address": "558 Monroe St", "City_1": "Detroit", "State_1": "MI", "Zip_1": "48226", "Phone_Number": "(313) 964-6800" }, "geometry": { "type": "Point", "coordinates": [ -83.041261056966306, 42.335146700516397 ] } },
{ "type": "Feature", "properties": { "ObjectID": 67, "X": 13472839.718733, "Y": 301097.64952600002, "Name": "Johnny Noodle King", "Street_Address": "2601 W Fort", "City_1": "Detroit", "State_1": "MI", "Zip_1": "48216", "Phone_Number": null }, "geometry": { "type": "Point", "coordinates": [ -83.074383409510503, 42.318856900225903 ] } },
{ "type": "Feature", "properties": { "ObjectID": 68, "X": 13472351.637460001, "Y": 305743.86095900001, "Name": "Slows Bar BQ", "Street_Address": "2138 Michigan Ave", "City_1": "Detroit", "State_1": "MI", "Zip_1": "48216", "Phone_Number": null }, "geometry": { "type": "Point", "coordinates": [ -83.075924551302293, 42.331625629738802 ] } },
{ "type": "Feature", "properties": { "ObjectID": 69, "X": 13480579.568781, "Y": 305509.67549, "Name": "Grand Trunk Pub", "Street_Address": "612 Woodward Ave", "City_1": "Detroit", "State_1": "MI", "Zip_1": "48226", "Phone_Number": "(313) 961-3043" }, "geometry": { "type": "Point", "coordinates": [ -83.045512192989094, 42.330632871912997 ] } },
{ "type": "Feature", "properties": { "ObjectID": 70, "X": 13482250.343834, "Y": 310668.01480200002, "Name": "Stache International", "Street_Address": "1416 E Fisher Fwy", "City_1": "Detroit", "State_1": "MI", "Zip_1": "48207", "Phone_Number": null }, "geometry": { "type": "Point", "coordinates": [ -83.039033152926706, 42.344714018639102 ] } },
{ "type": "Feature", "properties": { "ObjectID": 71, "X": 13480252.121641999, "Y": 306290.08644500002, "Name": "Calexico - Detroit", "Street_Address": "1040 Woodward Ave", "City_1": "Detroit", "State_1": "MI", "Zip_1": "48226", "Phone_Number": "(313) 262-6361" }, "geometry": { "type": "Point", "coordinates": [ -83.047422708984399, 42.3329093396706 ] } },
{ "type": "Feature", "properties": { "ObjectID": 72, "X": 13479781.008548999, "Y": 304901.47652299999, "Name": "Blue Star Cafe", "Street_Address": "239 W Congress St", "City_1": "Detroit", "State_1": "MI", "Zip_1": "48226", "Phone_Number": "(313) 222-5893" }, "geometry": { "type": "Point", "coordinates": [ -83.048528567384494, 42.3288022477564 ] } },
{ "type": "Feature", "properties": { "ObjectID": 73, "X": 13474825.2723097, "Y": 308646.650590554, "Name": "Iridescence", "Street_Address": "2901 Grand River Ave", "City_1": "Detroit", "State_1": "MI", "Zip_1": "48218", "Phone_Number": null }, "geometry": { "type": "Point", "coordinates": [ -83.066611532948997, 42.339485806753899 ] } },
{ "type": "Feature", "properties": { "ObjectID": 74, "X": 13480312.325903, "Y": 304694.9037, "Name": "The District Bar & Grill", "Street_Address": "150 W Jefferson", "City_1": "Detroit", "State_1": "MI", "Zip_1": "48226", "Phone_Number": "(313) 285-8992" }, "geometry": { "type": "Point", "coordinates": [ -83.046547656851899, 42.328408830946401 ] } },
{ "type": "Feature", "properties": { "ObjectID": 75, "X": 13481927.400824999, "Y": 304977.71265599999, "Name": "Granite City Food & Brewery", "Street_Address": "100 Renaissance Ctr", "City_1": "Detroit", "State_1": "MI", "Zip_1": "48243", "Phone_Number": "(313) 309-9120" }, "geometry": { "type": "Point", "coordinates": [ -83.040559134448799, 42.329115146378903 ] } },
{ "type": "Feature", "properties": { "ObjectID": 76, "X": 13480983.547967, "Y": 305708.80581200001, "Name": "Checker Bar", "Street_Address": "124 Cadillac Sq", "City_1": "Detroit", "State_1": "MI", "Zip_1": "48226", "Phone_Number": "(313) 961-9249" }, "geometry": { "type": "Point", "coordinates": [ -83.044006780183096, 42.331161833866602 ] } },
{ "type": "Feature", "properties": { "ObjectID": 77, "X": 13476639.085720001, "Y": 303471.04648800002, "Name": "Sheeba Express", "Street_Address": "1366 W Fort St", "City_1": "Detroit", "State_1": "MI", "Zip_1": "48226", "Phone_Number": null }, "geometry": { "type": "Point", "coordinates": [ -83.060200445382407, 42.3252080729536 ] } },
{ "type": "Feature", "properties": { "ObjectID": 79, "X": 13481632.474465, "Y": 307336.152007, "Name": "Wahlburgers", "Street_Address": "569 Monroe St", "City_1": "Detroit", "State_1": "MI", "Zip_1": "48226", "Phone_Number": "(313) 209-4499" }, "geometry": { "type": "Point", "coordinates": [ -83.041512420708997, 42.335598887724203 ] } },
{ "type": "Feature", "properties": { "ObjectID": 80, "X": 13481382.750894001, "Y": 307172.75588299998, "Name": "Santorini Estiatorio", "Street_Address": "501 Monroe St", "City_1": "Detroit", "State_1": "MI", "Zip_1": "48226", "Phone_Number": "(313) 962-9366" }, "geometry": { "type": "Point", "coordinates": [ -83.042445432332897, 42.335161349225402 ] } },
{ "type": "Feature", "properties": { "ObjectID": 81, "X": 13478628.309319999, "Y": 304966.07465700002, "Name": "Motor City Kitchen", "Street_Address": "525 W Lafayette Blvd", "City_1": "Detroit", "State_1": "MI", "Zip_1": "48226", "Phone_Number": "(313) 963-5600" }, "geometry": { "type": "Point", "coordinates": [ -83.052758994875603, 42.329225146120102 ] } },
{ "type": "Feature", "properties": { "ObjectID": 82, "X": 13479656.088779001, "Y": 307366.790767, "Name": "Small Plates", "Street_Address": "1521 Broadway", "City_1": "Detroit", "State_1": "MI", "Zip_1": "48226", "Phone_Number": "(313) 963-0702" }, "geometry": { "type": "Point", "coordinates": [ -83.048819563566397, 42.335768076135302 ] } },
{ "type": "Feature", "properties": { "ObjectID": 83, "X": 13478636.583434001, "Y": 307639.77277099999, "Name": "Cliff Bell’s", "Street_Address": "2030 Park Ave", "City_1": "Detroit", "State_1": "MI", "Zip_1": "48226", "Phone_Number": "(313) 961-2543" }, "geometry": { "type": "Point", "coordinates": [ -83.052574075324998, 42.336560801603703 ] } },
{ "type": "Feature", "properties": { "ObjectID": 84, "X": 13475795.337960999, "Y": 312561.75696600002, "Name": "La Feria", "Street_Address": "4130 Cass Ave", "City_1": "Detroit", "State_1": "MI", "Zip_1": "48201", "Phone_Number": "(313) 285-9081" }, "geometry": { "type": "Point", "coordinates": [ -83.062799621918302, 42.350186814542397 ] } },
{ "type": "Feature", "properties": { "ObjectID": 85, "X": 13472574.983038001, "Y": 305661.17728399998, "Name": "Gold Cash Gold", "Street_Address": "2100 Michigan Ave", "City_1": "Detroit", "State_1": "MI", "Zip_1": "48216", "Phone_Number": null }, "geometry": { "type": "Point", "coordinates": [ -83.075103331657402, 42.331389365135202 ] } },
{ "type": "Feature", "properties": { "ObjectID": 86, "X": 13471964.613763001, "Y": 303529.28020500002, "Name": "Huron Room", "Street_Address": "2547 Bagley St", "City_1": "Detroit", "State_1": "MI", "Zip_1": "48216", "Phone_Number": null }, "geometry": { "type": "Point", "coordinates": [ -83.077481135538406, 42.325565575645903 ] } },
{ "type": "Feature", "properties": { "ObjectID": 87, "X": 13479618.676007001, "Y": 306264.36465900001, "Name": "Go! Sy Thai", "Street_Address": "1226 Griswold St", "City_1": "Detroit", "State_1": "MI", "Zip_1": "48226", "Phone_Number": "(313) 638-1467" }, "geometry": { "type": "Point", "coordinates": [ -83.049021731016396, 42.332744882035797 ] } },
{ "type": "Feature", "properties": { "ObjectID": 88, "X": 13479771.832415, "Y": 305876.32265, "Name": "24grille", "Street_Address": "204 Michigan Ave", "City_1": "Detroit", "State_1": "MI", "Zip_1": "48226", "Phone_Number": "(313) 964-3821" }, "geometry": { "type": "Point", "coordinates": [ -83.050114237027699, 42.331866492057102 ] } },
{ "type": "Feature", "properties": { "ObjectID": 89, "X": 13480998.141388999, "Y": 305779.87883200002, "Name": "POP + Offworld", "Street_Address": "128 Cadillac Square", "City_1": "Detroit", "State_1": "MI", "Zip_1": "48226", "Phone_Number": "(313) 961-9249" }, "geometry": { "type": "Point", "coordinates": [ -83.043973895973394, 42.331154526380701 ] } },
{ "type": "Feature", "properties": { "ObjectID": 90, "X": 13472208.839271, "Y": 303498.25246, "Name": "Honey Bee La Colmena", "Street_Address": "2443 Bagley St", "City_1": "Detroit", "State_1": "MI", "Zip_1": "48216", "Phone_Number": null }, "geometry": { "type": "Point", "coordinates": [ -83.076579858540995, 42.325470176739103 ] } },
{ "type": "Feature", "properties": { "ObjectID": 91, "X": 13478926.108302001, "Y": 307796.05767499999, "Name": "Brass Rail Pizza Bar", "Street_Address": "18 W Adams Ave", "City_1": "Detroit", "State_1": "MI", "Zip_1": "48226", "Phone_Number": "(313) 964-0782" }, "geometry": { "type": "Point", "coordinates": [ -83.051494330331906, 42.336977206784198 ] } },
{ "type": "Feature", "properties": { "ObjectID": 92, "X": 13478237.002516, "Y": 309062.73176400003, "Name": "Sports & Social Detroit", "Street_Address": "28 Henry St", "City_1": "Detroit", "State_1": "MI", "Zip_1": "48201", "Phone_Number": "(313) 782-4778" }, "geometry": { "type": "Point", "coordinates": [ -83.0539697431484, 42.3404821772791 ] } },
{ "type": "Feature", "properties": { "ObjectID": 93, "X": 13481238.654366, "Y": 306896.80485199997, "Name": "Fishbone’s", "Street_Address": "400 Monroe St", "City_1": "Detroit", "State_1": "MI", "Zip_1": "48226", "Phone_Number": "(313) 965-4600" }, "geometry": { "type": "Point", "coordinates": [ -83.042994359828299, 42.334410422173399 ] } },
{ "type": "Feature", "properties": { "ObjectID": 94, "X": 13472305.550884999, "Y": 305564.38883299998, "Name": "Mercury Burger Bar", "Street_Address": "2163 Michigan Ave", "City_1": "Detroit", "State_1": "MI", "Zip_1": "48216", "Phone_Number": null }, "geometry": { "type": "Point", "coordinates": [ -83.076105149236696, 42.331135136175902 ] } },
{ "type": "Feature", "properties": { "ObjectID": 95, "X": 13474569.857055999, "Y": 311727.60484, "Name": "Gus’s World Famous Fried Chicken", "Street_Address": "4101 3rd St", "City_1": "Detroit", "State_1": "MI", "Zip_1": "48201", "Phone_Number": "(313) 818-0324" }, "geometry": { "type": "Point", "coordinates": [ -83.067380295749402, 42.347950075038497 ] } },
{ "type": "Feature", "properties": { "ObjectID": 96, "X": 13480855.448837001, "Y": 306776.27610199997, "Name": "Ham Shop Cafe", "Street_Address": "330 Monroe St", "City_1": "Detroit", "State_1": "MI", "Zip_1": "48226", "Phone_Number": "(313) 965-0088" }, "geometry": { "type": "Point", "coordinates": [ -83.044348390171706, 42.333994177345602 ] } },
{ "type": "Feature", "properties": { "ObjectID": 97, "X": 13479915.289841, "Y": 305509.09180900001, "Name": "Drought", "Street_Address": "719 Griswold St", "City_1": "Detroit", "State_1": "MI", "Zip_1": "48226", "Phone_Number": "(313) 888-9950" }, "geometry": { "type": "Point", "coordinates": [ -83.047968617267003, 42.330659846860698 ] } },
{ "type": "Feature", "properties": { "ObjectID": 98, "X": 13479626.50929, "Y": 307382.28944700002, "Name": "Detroit Beer Company", "Street_Address": "1529 Broadway", "City_1": "Detroit", "State_1": "MI", "Zip_1": "48226", "Phone_Number": "(313) 962-1529" }, "geometry": { "type": "Point", "coordinates": [ -83.048928056169402, 42.335811871349001 ] } },
{ "type": "Feature", "properties": { "ObjectID": 99, "X": 13477656.353115, "Y": 310545.147291, "Name": "Pho Lucky - Detroit", "Street_Address": "3111 Woodward Ave", "City_1": "Detroit", "State_1": "MI", "Zip_1": "48201", "Phone_Number": "(313) 338-3895" }, "geometry": { "type": "Point", "coordinates": [ -83.056031872947102, 42.344574407616001 ] } },
{ "type": "Feature", "properties": { "ObjectID": 100, "X": 13478624.654033, "Y": 307657.06628899998, "Name": "Bar", "Street_Address": "2040 Park Ave", "City_1": "Detroit", "State_1": "MI", "Zip_1": "48226", "Phone_Number": "(313) 962-2933" }, "geometry": { "type": "Point", "coordinates": [ -83.052617193174001, 42.336608762244097 ] } },
{ "type": "Feature", "properties": { "ObjectID": 101, "X": 13480340.842305001, "Y": 306840.58716499998, "Name": "Punch Bowl Social Detroit", "Street_Address": "1331 Broadway St", "City_1": "Detroit", "State_1": "MI", "Zip_1": "48226", "Phone_Number": "(313) 749-9738" }, "geometry": { "type": "Point", "coordinates": [ -83.046317776069898, 42.334294858141803 ] } },
{ "type": "Feature", "properties": { "ObjectID": 102, "X": 13479794.186152, "Y": 305803.51664, "Name": "American Coney Island", "Street_Address": "114 W Lafayette Blvd", "City_1": "Detroit", "State_1": "MI", "Zip_1": "48226", "Phone_Number": "(313) 961-7758" }, "geometry": { "type": "Point", "coordinates": [ -83.0487062985747, 42.331493552803799 ] } },
{ "type": "Feature", "properties": { "ObjectID": 103, "X": 13479534.163988, "Y": 307070.48536699999, "Name": "Chickpea In the D", "Street_Address": "2 John R", "City_1": "Detroit", "State_1": "MI", "Zip_1": "48226", "Phone_Number": "(313) 970-7618" }, "geometry": { "type": "Point", "coordinates": [ -83.0488808176341, 42.335027064937798 ] } },
{ "type": "Feature", "properties": { "ObjectID": 104, "X": 13476267.278982, "Y": 313234.27282499999, "Name": "HopCat", "Street_Address": "4265 Woodward Ave", "City_1": "Detroit", "State_1": "MI", "Zip_1": "48201", "Phone_Number": "(313) 769-8828" }, "geometry": { "type": "Point", "coordinates": [ -83.061015333739206, 42.352011977259799 ] } },
{ "type": "Feature", "properties": { "ObjectID": 105, "X": 13475013.509134, "Y": 312819.50836500002, "Name": "Jolly Pumpkin Pizzeria and Brewery", "Street_Address": "441 W Canfield", "City_1": "Detroit", "State_1": "MI", "Zip_1": "48201", "Phone_Number": "(313) 262-6115" }, "geometry": { "type": "Point", "coordinates": [ -83.065676871198207, 42.350927213396901 ] } },
{ "type": "Feature", "properties": { "ObjectID": 106, "X": 13481648.831402, "Y": 307266.72971, "Name": "Red Smoke Barbecue", "Street_Address": "573 Monroe St", "City_1": "Detroit", "State_1": "MI", "Zip_1": "48226", "Phone_Number": "(313) 962-2100" }, "geometry": { "type": "Point", "coordinates": [ -83.041352986722899, 42.335596509705802 ] } },
{ "type": "Feature", "properties": { "ObjectID": 107, "X": 13475769.589907, "Y": 305827.13775499997, "Name": "PJ’s Lager House", "Street_Address": "1254 Michigan Ave", "City_1": "Detroit", "State_1": "MI", "Zip_1": "48226", "Phone_Number": "(313) 961-4668" }, "geometry": { "type": "Point", "coordinates": [ -83.063280545415097, 42.3317096340093 ] } },
{ "type": "Feature", "properties": { "ObjectID": 108, "X": 13482193.808398901, "Y": 305140.640748039, "Name": "Sweet Lorraine’s Fabulous Mac n’ Cheez!", "Street_Address": "Renaissance Ctr", "City_1": "Detroit", "State_1": "MI", "Zip_1": "48243", "Phone_Number": "(313) 656-4838" }, "geometry": { "type": "Point", "coordinates": [ -83.039564533576197, 42.329550664116802 ] } },
{ "type": "Feature", "properties": { "ObjectID": 109, "X": 13475495.603551, "Y": 311681.62316700001, "Name": "Honest John’s Bar & Grill", "Street_Address": "488 Selden St", "City_1": "Detroit", "State_1": "MI", "Zip_1": "48201", "Phone_Number": "(313) 832-5646" }, "geometry": { "type": "Point", "coordinates": [ -83.063958715788004, 42.347784657613303 ] } },
{ "type": "Feature", "properties": { "ObjectID": 110, "X": 13476498.691191999, "Y": 310405.13971100003, "Name": "The Peterboro", "Street_Address": "420 Peterboro St", "City_1": "Detroit", "State_1": "MI", "Zip_1": "48201", "Phone_Number": "(313) 833-1111" }, "geometry": { "type": "Point", "coordinates": [ -83.060321708255699, 42.344239628422102 ] } },
{ "type": "Feature", "properties": { "ObjectID": 111, "X": 13482004.001191, "Y": 310951.10633799998, "Name": "Russell St Deli", "Street_Address": "2465 Russell St", "City_1": "Detroit", "State_1": "MI", "Zip_1": "48207", "Phone_Number": "(313) 567-2900" }, "geometry": { "type": "Point", "coordinates": [ -83.039927788056403, 42.345501410075499 ] } },
{ "type": "Feature", "properties": { "ObjectID": 112, "X": 13480047.988709001, "Y": 308036.26306199998, "Name": "Grill Room at Detroit Athletic Club", "Street_Address": "241 Madison Ave", "City_1": "Detroit", "State_1": "MI", "Zip_1": "48226", "Phone_Number": "(313) 963-9200" }, "geometry": { "type": "Point", "coordinates": [ -83.047331466063795, 42.3375881104417 ] } },
{ "type": "Feature", "properties": { "ObjectID": 113, "X": 13480316.47006, "Y": 306763.594835, "Name": "7 Greens Detroit Salad", "Street_Address": "1222 Library St", "City_1": "Detroit", "State_1": "MI", "Zip_1": "48226", "Phone_Number": "(313) 964-9005" }, "geometry": { "type": "Point", "coordinates": [ -83.0464123701408, 42.334084657615797 ] } },
{ "type": "Feature", "properties": { "ObjectID": 114, "X": 13482629.386268999, "Y": 310533.35507400002, "Name": "Trinosophes", "Street_Address": "1464 Gratiot", "City_1": "Detroit", "State_1": "MI", "Zip_1": "48207", "Phone_Number": null }, "geometry": { "type": "Point", "coordinates": [ -83.037639068947996, 42.344328134625101 ] } },
{ "type": "Feature", "properties": { "ObjectID": 115, "X": 13480793.975248, "Y": 306912.46630199999, "Name": "Giordano’s - Detroit", "Street_Address": "1224 Randolph St", "City_1": "Detroit", "State_1": "MI", "Zip_1": "48226", "Phone_Number": "(313) 752-0441" }, "geometry": { "type": "Point", "coordinates": [ -83.044637895859694, 42.334472565279199 ] } },
{ "type": "Feature", "properties": { "ObjectID": 117, "X": 13482358.9376, "Y": 304876.434603, "Name": "Volt Lounge", "Street_Address": "400 Renaissance Dr", "City_1": "Detroit", "State_1": "MI", "Zip_1": "48243", "Phone_Number": "(313) 568-8000" }, "geometry": { "type": "Point", "coordinates": [ -83.038969333293494, 42.328818601662803 ] } },
{ "type": "Feature", "properties": { "ObjectID": 118, "X": 13480009.853664, "Y": 306030.27626999997, "Name": "Bellacino’s", "Street_Address": "1001 Woodward Ave", "City_1": "Detroit", "State_1": "MI", "Zip_1": "48226", "Phone_Number": "(313) 963-3000" }, "geometry": { "type": "Point", "coordinates": [ -83.047314794485999, 42.331969186442898 ] } },
{ "type": "Feature", "properties": { "ObjectID": 119, "X": 13475505.753642, "Y": 312639.34170300001, "Name": "Avalon International Breads", "Street_Address": "422 W Willis St", "City_1": "Detroit", "State_1": "MI", "Zip_1": "48201", "Phone_Number": "(313) 832-0008" }, "geometry": { "type": "Point", "coordinates": [ -83.063866352279902, 42.350411991112402 ] } },
{ "type": "Feature", "properties": { "ObjectID": 120, "X": 13474911.515149999, "Y": 313144.63604299998, "Name": "Motor City Brewing Works", "Street_Address": "470 W Canfield St", "City_1": "Detroit", "State_1": "MI", "Zip_1": "48201", "Phone_Number": "(313) 832-2700" }, "geometry": { "type": "Point", "coordinates": [ -83.066035571217199, 42.351823615561599 ] } },
{ "type": "Feature", "properties": { "ObjectID": 121, "X": 13479199.153648, "Y": 304673.04303300002, "Name": "Cobo Joe’s Bar", "Street_Address": "422 W Congress St", "City_1": "Detroit", "State_1": "MI", "Zip_1": "48226", "Phone_Number": "(313) 965-0840" }, "geometry": { "type": "Point", "coordinates": [ -83.050665095878699, 42.328396670094797 ] } },
{ "type": "Feature", "properties": { "ObjectID": 122, "X": 13479278.252637999, "Y": 307469.71253800002, "Name": "Broderick Grille", "Street_Address": "1570 Woodward Ave", "City_1": "Detroit", "State_1": "MI", "Zip_1": "48226", "Phone_Number": "(313) 672-2073" }, "geometry": { "type": "Point", "coordinates": [ -83.049816400131903, 42.335931084085303 ] } },
{ "type": "Feature", "properties": { "ObjectID": 123, "X": 13481457.010530001, "Y": 307229.17830299999, "Name": "Golden Fleece Restaurant", "Street_Address": "525 Monroe St", "City_1": "Detroit", "State_1": "MI", "Zip_1": "48226", "Phone_Number": "(313) 962-7093" }, "geometry": { "type": "Point", "coordinates": [ -83.042167531018606, 42.3353129532682 ] } },
{ "type": "Feature", "properties": { "ObjectID": 124, "X": 13471115.063255999, "Y": 313863.77075000003, "Name": "Pie Sci", "Street_Address": "5163 Trumbull Ave", "City_1": "Detroit", "State_1": "MI", "Zip_1": "48208", "Phone_Number": "(313) 818-0290" }, "geometry": { "type": "Point", "coordinates": [ -83.080038389432701, 42.353956826275898 ] } },
{ "type": "Feature", "properties": { "ObjectID": 125, "X": 13481639.928786, "Y": 306392.42122600001, "Name": "Detroiter Bar", "Street_Address": "655 Beaubien St", "City_1": "Detroit", "State_1": "MI", "Zip_1": "48226", "Phone_Number": "(313) 963-3355" }, "geometry": { "type": "Point", "coordinates": [ -83.0415397881156, 42.333009192089897 ] } },
{ "type": "Feature", "properties": { "ObjectID": 126, "X": 13469780.467656, "Y": 302502.97597700002, "Name": "Taqueria Lupita’s", "Street_Address": "3443 Bagley St", "City_1": "Detroit", "State_1": "MI", "Zip_1": "48216", "Phone_Number": "(313) 843-1105" }, "geometry": { "type": "Point", "coordinates": [ -83.0856148795568, 42.3228411002614 ] } },
{ "type": "Feature", "properties": { "ObjectID": 127, "X": 13481632.391620001, "Y": 306497.149798, "Name": "Niki’s Pizza", "Street_Address": "735 Beaubien St", "City_1": "Detroit", "State_1": "MI", "Zip_1": "48226", "Phone_Number": "(313) 961-4303" }, "geometry": { "type": "Point", "coordinates": [ -83.041703210975399, 42.3332794635391 ] } },
{ "type": "Feature", "properties": { "ObjectID": 128, "X": 13478256.058684999, "Y": 308136.50346099999, "Name": "Centaur Bar", "Street_Address": "2233 Park Ave", "City_1": "Detroit", "State_1": "MI", "Zip_1": "48201", "Phone_Number": "(313) 963-4040" }, "geometry": { "type": "Point", "coordinates": [ -83.053952680746406, 42.337940005605297 ] } },
{ "type": "Feature", "properties": { "ObjectID": 129, "X": 13471268.65635, "Y": 303789.44403000001, "Name": "Tamaleria Nuevo Leon", "Street_Address": "2669 Vernor Hwy", "City_1": "Detroit", "State_1": "MI", "Zip_1": "48216", "Phone_Number": null }, "geometry": { "type": "Point", "coordinates": [ -83.080039770971993, 42.326308621185603 ] } },
{ "type": "Feature", "properties": { "ObjectID": 130, "X": 13476694.426210999, "Y": 312406.51062199997, "Name": "The Block", "Street_Address": "3919 Woodward Ave", "City_1": "Detroit", "State_1": "MI", "Zip_1": "48201", "Phone_Number": "(313) 832-0892" }, "geometry": { "type": "Point", "coordinates": [ -83.059482816419504, 42.349722598100897 ] } },
{ "type": "Feature", "properties": { "ObjectID": 131, "X": 13487275.175519001, "Y": 308452.79963800003, "Name": "Bucharest Grill", "Street_Address": "2684 E Jefferson", "City_1": "Detroit", "State_1": "MI", "Zip_1": "48207", "Phone_Number": null }, "geometry": { "type": "Point", "coordinates": [ -83.020579100603001, 42.3384170713529 ] } },
{ "type": "Feature", "properties": { "ObjectID": 132, "X": 13480173.685596, "Y": 305164.96199899999, "Name": "Greenroom Salads", "Street_Address": "120 W Congress St", "City_1": "Detroit", "State_1": "MI", "Zip_1": "48226", "Phone_Number": "(313) 963-9565" }, "geometry": { "type": "Point", "coordinates": [ -83.047033060191794, 42.329704525223597 ] } },
{ "type": "Feature", "properties": { "ObjectID": 133, "X": 13480519.842654999, "Y": 305685.00463099999, "Name": "Lunchtime Global", "Street_Address": "660 Woodward Ave", "City_1": "Detroit", "State_1": "MI", "Zip_1": "48226", "Phone_Number": "(313) 963-4871" }, "geometry": { "type": "Point", "coordinates": [ -83.045722877894804, 42.3311165053235 ] } },
{ "type": "Feature", "properties": { "ObjectID": 134, "X": 13480906.929448999, "Y": 306001.29444899998, "Name": "Cadillac Square Diner", "Street_Address": "111 Cadillac Sq", "City_1": "Detroit", "State_1": "MI", "Zip_1": "48226", "Phone_Number": "(313) 974-6923" }, "geometry": { "type": "Point", "coordinates": [ -83.044273114762603, 42.331967656106002 ] } },
{ "type": "Feature", "properties": { "ObjectID": 135, "X": 13478256.058684999, "Y": 308136.50346099999, "Name": "Hot Taco", "Street_Address": "2233 Park Ave", "City_1": "Detroit", "State_1": "MI", "Zip_1": "48201", "Phone_Number": "(313) 963-4545" }, "geometry": { "type": "Point", "coordinates": [ -83.053952680746406, 42.337940005605297 ] } },
{ "type": "Feature", "properties": { "ObjectID": 136, "X": 13487979.415572001, "Y": 307742.89954100002, "Name": "Andrews On the Corner", "Street_Address": "201 Joseph Campau St", "City_1": "Detroit", "State_1": "MI", "Zip_1": "48207", "Phone_Number": null }, "geometry": { "type": "Point", "coordinates": [ -83.018016690240501, 42.3364383567841 ] } },
{ "type": "Feature", "properties": { "ObjectID": 137, "X": 13475531.715426, "Y": 313004.81983699999, "Name": "Go! Sy Thai", "Street_Address": "4240 Cass Ave", "City_1": "Detroit", "State_1": "MI", "Zip_1": "48201", "Phone_Number": "(313) 638-1467" }, "geometry": { "type": "Point", "coordinates": [ -83.063749395858295, 42.351413677908901 ] } },
{ "type": "Feature", "properties": { "ObjectID": 138, "X": 13474844.009165, "Y": 305799.7938, "Name": "McShane’s Irish Pub & Whiskey Bar", "Street_Address": "1460 Michigan Ave", "City_1": "Detroit", "State_1": "MI", "Zip_1": "48216", "Phone_Number": "(313) 961-1960" }, "geometry": { "type": "Point", "coordinates": [ -83.066704816225894, 42.331673875324697 ] } },
{ "type": "Feature", "properties": { "ObjectID": 139, "X": 13481043.701362001, "Y": 307453.371269, "Name": "Harbor House", "Street_Address": "440 Clinton St", "City_1": "Detroit", "State_1": "MI", "Zip_1": "48226", "Phone_Number": "(313) 967-9900" }, "geometry": { "type": "Point", "coordinates": [ -83.043682961111202, 42.3359459180286 ] } },
{ "type": "Feature", "properties": { "ObjectID": 140, "X": 13480555.54252, "Y": 305549.92526300001, "Name": "Bangkok Crossing", "Street_Address": "620 Woodward Ave", "City_1": "Detroit", "State_1": "MI", "Zip_1": "48226", "Phone_Number": "(313) 961-3861" }, "geometry": { "type": "Point", "coordinates": [ -83.045598702311295, 42.330744342083797 ] } },
{ "type": "Feature", "properties": { "ObjectID": 141, "X": 13479019.418326, "Y": 306651.461304, "Name": "Bam Bamz Pizza", "Street_Address": "1411 Washington Blvd", "City_1": "Detroit", "State_1": "MI", "Zip_1": "48226", "Phone_Number": "(313) 964-4100" }, "geometry": { "type": "Point", "coordinates": [ -83.051504552412894, 42.334149614811601 ] } },
{ "type": "Feature", "properties": { "ObjectID": 142, "X": 13475827.191132, "Y": 313499.99301500001, "Name": "The Ghost Bar", "Street_Address": "4421 Woodward Ave", "City_1": "Detroit", "State_1": "MI", "Zip_1": "48201", "Phone_Number": "(313) 832-5700" }, "geometry": { "type": "Point", "coordinates": [ -83.062628038220694, 42.352759768751 ] } },
{ "type": "Feature", "properties": { "ObjectID": 143, "X": 13474661.892038999, "Y": 305586.83318100002, "Name": "Onassis Coney Island", "Street_Address": "1501 Michigan Ave", "City_1": "Detroit", "State_1": "MI", "Zip_1": "48216", "Phone_Number": "(313) 222-9999" }, "geometry": { "type": "Point", "coordinates": [ -83.067390421620999, 42.331097272851203 ] } },
{ "type": "Feature", "properties": { "ObjectID": 144, "X": 13474688.13603, "Y": 313285.57764600002, "Name": "The Bronx Bar", "Street_Address": "4476 2nd Ave", "City_1": "Detroit", "State_1": "MI", "Zip_1": "48201", "Phone_Number": "(313) 832-8464" }, "geometry": { "type": "Point", "coordinates": [ -83.066853821759395, 42.352219793700201 ] } },
{ "type": "Feature", "properties": { "ObjectID": 145, "X": 13478319.795733999, "Y": 309260.55158700002, "Name": "Mike’s Pizza Bar", "Street_Address": "2515 Woodward Ave", "City_1": "Detroit", "State_1": "MI", "Zip_1": "48201", "Phone_Number": "(313) 782-4589" }, "geometry": { "type": "Point", "coordinates": [ -83.053652128349299, 42.341021406880699 ] } },
{ "type": "Feature", "properties": { "ObjectID": 146, "X": 13482241.027919, "Y": 311168.897589, "Name": "Eastern Market Seafood Co", "Street_Address": "2456 Market St", "City_1": "Detroit", "State_1": "MI", "Zip_1": "48207", "Phone_Number": "(313) 567-8359" }, "geometry": { "type": "Point", "coordinates": [ -83.039038393669102, 42.346088725086098 ] } },
{ "type": "Feature", "properties": { "ObjectID": 147, "X": 13466199.777084, "Y": 301058.50112299999, "Name": "Taqueria El Rey", "Street_Address": "4750 Vernor Hwy", "City_1": "Detroit", "State_1": "MI", "Zip_1": "48209", "Phone_Number": "(313) 357-3094" }, "geometry": { "type": "Point", "coordinates": [ -83.098934554601996, 42.319026487967399 ] } },
{ "type": "Feature", "properties": { "ObjectID": 148, "X": 13477619.606921, "Y": 308623.24824599997, "Name": "Harry’s Detroit", "Street_Address": "2482 Clifford St", "City_1": "Detroit", "State_1": "MI", "Zip_1": "48201", "Phone_Number": "(313) 964-1575" }, "geometry": { "type": "Point", "coordinates": [ -83.056278429716599, 42.339302726973699 ] } },
{ "type": "Feature", "properties": { "ObjectID": 149, "X": 13480435.926227, "Y": 307316.01440400002, "Name": "Detroit Seafood Market", "Street_Address": "1435 Randolph St", "City_1": "Detroit", "State_1": "MI", "Zip_1": "48226", "Phone_Number": "(313) 962-4180" }, "geometry": { "type": "Point", "coordinates": [ -83.045938569094702, 42.335595226677398 ] } },
{ "type": "Feature", "properties": { "ObjectID": 150, "X": 13480502.497561, "Y": 306605.62599899998, "Name": "Orchid Thai Restaurant", "Street_Address": "115 Monroe St", "City_1": "Detroit", "State_1": "MI", "Zip_1": "48226", "Phone_Number": "(313) 962-0225" }, "geometry": { "type": "Point", "coordinates": [ -83.045733600487793, 42.333643221435302 ] } },
{ "type": "Feature", "properties": { "ObjectID": 151, "X": 13487678.717263, "Y": 308383.40146000002, "Name": "They Say", "Street_Address": "267 Joseph Campau St", "City_1": "Detroit", "State_1": "MI", "Zip_1": "48207", "Phone_Number": null }, "geometry": { "type": "Point", "coordinates": [ -83.019090803199106, 42.338208946892699 ] } },
{ "type": "Feature", "properties": { "ObjectID": 152, "X": 13474294.712681999, "Y": 305609.46700200002, "Name": "Bucharest Grill", "Street_Address": "1623 Michigan Ave", "City_1": "Detroit", "State_1": "MI", "Zip_1": "48216", "Phone_Number": "(313) 965-3111" }, "geometry": { "type": "Point", "coordinates": [ -83.068746913195298, 42.331174914552797 ] } },
{ "type": "Feature", "properties": { "ObjectID": 153, "X": 13488134.35024, "Y": 307933.39928100002, "Name": "Rattlesnake Club", "Street_Address": "300 River Pl Dr", "City_1": "Detroit", "State_1": "MI", "Zip_1": "48207", "Phone_Number": null }, "geometry": { "type": "Point", "coordinates": [ -83.017432427441307, 42.336954228888601 ] } },
{ "type": "Feature", "properties": { "ObjectID": 154, "X": 13476453.119891999, "Y": 313680.84509000002, "Name": "La Palma", "Street_Address": "113 E Canfield St", "City_1": "Detroit", "State_1": "MI", "Zip_1": "48201", "Phone_Number": "(313) 833-5000" }, "geometry": { "type": "Point", "coordinates": [ -83.060302254311196, 42.353229359461601 ] } },
{ "type": "Feature", "properties": { "ObjectID": 155, "X": 13479222.213467, "Y": 305754.95215500001, "Name": "Big City Bar & Grill", "Street_Address": "1020 Washington Blvd", "City_1": "Detroit", "State_1": "MI", "Zip_1": "48226", "Phone_Number": "(313) 963-8808" }, "geometry": { "type": "Point", "coordinates": [ -83.050517282639404, 42.331364188848603 ] } },
{ "type": "Feature", "properties": { "ObjectID": 156, "X": 13478005.288558999, "Y": 303072.41387799999, "Name": "Signature Grill", "Street_Address": "250 Riverfront Dr", "City_1": "Detroit", "State_1": "MI", "Zip_1": "48226", "Phone_Number": null }, "geometry": { "type": "Point", "coordinates": [ -83.055171854689803, 42.324056031323302 ] } },
{ "type": "Feature", "properties": { "ObjectID": 157, "X": 13476552.563206, "Y": 306423.38043800002, "Name": "MGM Grand Detroit", "Street_Address": "1777 3rd St", "City_1": "Detroit", "State_1": "MI", "Zip_1": "48226", "Phone_Number": "(877) 888-2121" }, "geometry": { "type": "Point", "coordinates": [ -83.060350974968301, 42.3333122916017 ] } },
{ "type": "Feature", "properties": { "ObjectID": 158, "X": 13482589.76977, "Y": 312003.93799000001, "Name": "Cutter’s Bar & Grill", "Street_Address": "2638 Orleans St", "City_1": "Detroit", "State_1": "MI", "Zip_1": "48207", "Phone_Number": "(313) 393-0960" }, "geometry": { "type": "Point", "coordinates": [ -83.037699732885798, 42.348364779130399 ] } },
{ "type": "Feature", "properties": { "ObjectID": 159, "X": 13470063.787722999, "Y": 302720.018989, "Name": "Los Galanes", "Street_Address": "3362 Bagley St", "City_1": "Detroit", "State_1": "MI", "Zip_1": "48216", "Phone_Number": "(313) 554-4444" }, "geometry": { "type": "Point", "coordinates": [ -83.084555112162803, 42.323424785675897 ] } },
{ "type": "Feature", "properties": { "ObjectID": 160, "X": 13479044.471764, "Y": 306198.27819099999, "Name": "State Deli & Grocery", "Street_Address": "1200 Washington Blvd", "City_1": "Detroit", "State_1": "MI", "Zip_1": "48226", "Phone_Number": "(313) 963-5141" }, "geometry": { "type": "Point", "coordinates": [ -83.050598413447005, 42.332641673020099 ] } },
{ "type": "Feature", "properties": { "ObjectID": 161, "X": 13482442.400055001, "Y": 305317.02668700001, "Name": "Gourmet Deli", "Street_Address": "500 Renaissance Ctr", "City_1": "Detroit", "State_1": "MI", "Zip_1": "48243", "Phone_Number": "(313) 396-5543" }, "geometry": { "type": "Point", "coordinates": [ -83.038635013326598, 42.330023868941701 ] } },
{ "type": "Feature", "properties": { "ObjectID": 162, "X": 13479299.166425001, "Y": 306025.92092200002, "Name": "WBC Coffee", "Street_Address": "1114 Washington Blvd", "City_1": "Detroit", "State_1": "MI", "Zip_1": "48226", "Phone_Number": "(313) 442-1600" }, "geometry": { "type": "Point", "coordinates": [ -83.050217052325905, 42.332104363172903 ] } },
{ "type": "Feature", "properties": { "ObjectID": 163, "X": 13480424.554, "Y": 305121.46457100002, "Name": "Guardian Cafe", "Street_Address": "500 Griswold St", "City_1": "Detroit", "State_1": "MI", "Zip_1": "48226", "Phone_Number": "(313) 962-7027" }, "geometry": { "type": "Point", "coordinates": [ -83.046107928890095, 42.329574385191499 ] } },
{ "type": "Feature", "properties": { "ObjectID": 164, "X": 13480432.493425, "Y": 306185.11418400001, "Name": "Hard Rock Cafe", "Street_Address": "45 Monroe Street", "City_1": "Detroit", "State_1": "MI", "Zip_1": "48226", "Phone_Number": "(313) 964-7625" }, "geometry": { "type": "Point", "coordinates": [ -83.046314085950897, 42.332406332835703 ] } },
{ "type": "Feature", "properties": { "ObjectID": 165, "X": 13480738.49511, "Y": 305996.52200499998, "Name": "Asiago’s Pizza", "Street_Address": "65 Cadillac Sq", "City_1": "Detroit", "State_1": "MI", "Zip_1": "48226", "Phone_Number": "(313) 262-6131" }, "geometry": { "type": "Point", "coordinates": [ -83.044896246232199, 42.3319618196577 ] } },
{ "type": "Feature", "properties": { "ObjectID": 166, "X": 13478818.415122001, "Y": 308307.69031199999, "Name": "Da Edoardo Foxtown Grille", "Street_Address": "2203 Woodward Ave", "City_1": "Detroit", "State_1": "MI", "Zip_1": "48201", "Phone_Number": "(313) 471-3500" }, "geometry": { "type": "Point", "coordinates": [ -83.051863051359703, 42.338385623582397 ] } },
{ "type": "Feature", "properties": { "ObjectID": 167, "X": 13476447.012474, "Y": 312887.83340800001, "Name": "Union Street", "Street_Address": "4145 Woodward Ave", "City_1": "Detroit", "State_1": "MI", "Zip_1": "48201", "Phone_Number": "(313) 831-3965" }, "geometry": { "type": "Point", "coordinates": [ -83.060370365651394, 42.351053775477901 ] } },
{ "type": "Feature", "properties": { "ObjectID": 168, "X": 13476113.551763, "Y": 313841.19288, "Name": "Café 78", "Street_Address": "4454 Woodward Ave", "City_1": "Detroit", "State_1": "MI", "Zip_1": "48201", "Phone_Number": "(313) 832-6622" }, "geometry": { "type": "Point", "coordinates": [ -83.061549181377899, 42.353683768082 ] } },
{ "type": "Feature", "properties": { "ObjectID": 169, "X": 13481952.069817999, "Y": 306982.76002, "Name": "Floods Bar & Grille", "Street_Address": "731 St Antoine St", "City_1": "Detroit", "State_1": "MI", "Zip_1": "48226", "Phone_Number": "(313) 963-1090" }, "geometry": { "type": "Point", "coordinates": [ -83.040292368076607, 42.334357477190302 ] } },
{ "type": "Feature", "properties": { "ObjectID": 170, "X": 13481996.521818999, "Y": 310965.28778200003, "Name": "Zeff’s Coney Island Restaurant", "Street_Address": "2469 Russell St", "City_1": "Detroit", "State_1": "MI", "Zip_1": "48207", "Phone_Number": "(313) 259-4705" }, "geometry": { "type": "Point", "coordinates": [ -83.039954625259796, 42.345540643958401 ] } },
{ "type": "Feature", "properties": { "ObjectID": 171, "X": 13469769.841878001, "Y": 302643.74209499999, "Name": "Evie’s Tamales", "Street_Address": "3454 Bagley St", "City_1": "Detroit", "State_1": "MI", "Zip_1": "48216", "Phone_Number": "(313) 843-5056" }, "geometry": { "type": "Point", "coordinates": [ -83.085646247106496, 42.323227775878898 ] } },
{ "type": "Feature", "properties": { "ObjectID": 172, "X": 13483777.29243, "Y": 308068.856562, "Name": "Bai Mai Thai", "Street_Address": "1541 E Lafayette St", "City_1": "Detroit", "State_1": "MI", "Zip_1": "48207", "Phone_Number": null }, "geometry": { "type": "Point", "coordinates": [ -83.033537734711601, 42.337516343414698 ] } },
{ "type": "Feature", "properties": { "ObjectID": 173, "X": 13475176.051653, "Y": 314869.55493400001, "Name": "The Potato Place", "Street_Address": "107 W Warren Ave", "City_1": "Detroit", "State_1": "MI", "Zip_1": "48201", "Phone_Number": "(313) 833-8948" }, "geometry": { "type": "Point", "coordinates": [ -83.064958365771503, 42.356545185968898 ] } },
{ "type": "Feature", "properties": { "ObjectID": 174, "X": 13476436.147220001, "Y": 312951.803411, "Name": "Zef’s Midtown", "Street_Address": "4160 Woodward Ave", "City_1": "Detroit", "State_1": "MI", "Zip_1": "48201", "Phone_Number": "(313) 831-1210" }, "geometry": { "type": "Point", "coordinates": [ -83.060406884767005, 42.351229757577897 ] } },
{ "type": "Feature", "properties": { "ObjectID": 175, "X": 13481826.901012, "Y": 311117.47526600002, "Name": "Beyond Juicery + Eatery", "Street_Address": "2501 Russell St", "City_1": "Detroit", "State_1": "MI", "Zip_1": "48207", "Phone_Number": "(313) 818-3502" }, "geometry": { "type": "Point", "coordinates": [ -83.0405731369585, 42.345965543432399 ] } },
{ "type": "Feature", "properties": { "ObjectID": 176, "X": 13481543.711838, "Y": 307282.55770200002, "Name": "New Parthenon Restaurant", "Street_Address": "547 Monroe St", "City_1": "Detroit", "State_1": "MI", "Zip_1": "48226", "Phone_Number": "(313) 963-8888" }, "geometry": { "type": "Point", "coordinates": [ -83.041843793802698, 42.335455671104299 ] } },
{ "type": "Feature", "properties": { "ObjectID": 177, "X": 13469966.914295999, "Y": 302656.04461300001, "Name": "Xochimilco Restaurant", "Street_Address": "3409 Bagley St", "City_1": "Detroit", "State_1": "MI", "Zip_1": "48216", "Phone_Number": "(313) 843-0179" }, "geometry": { "type": "Point", "coordinates": [ -83.084916895682497, 42.323253301024401 ] } },
{ "type": "Feature", "properties": { "ObjectID": 178, "X": 13475210.096187999, "Y": 315468.92437999998, "Name": "Kresge Court at Detroit Institute of Arts", "Street_Address": "5200 Woodward Ave", "City_1": "Detroit", "State_1": "MI", "Zip_1": "48202", "Phone_Number": "(313) 833-7900" }, "geometry": { "type": "Point", "coordinates": [ -83.064798134651596, 42.358188277055099 ] } },
{ "type": "Feature", "properties": { "ObjectID": 179, "X": 13473246.995267, "Y": 307137.47184200003, "Name": "Nancy Whiskey", "Street_Address": "2644 Harrison St", "City_1": "Detroit", "State_1": "MI", "Zip_1": "48216", "Phone_Number": null }, "geometry": { "type": "Point", "coordinates": [ -83.072534383819502, 42.335411676585103 ] } },
{ "type": "Feature", "properties": { "ObjectID": 180, "X": 13480081.118601, "Y": 305349.72676699999, "Name": "Which Wich Superior Sandwiches", "Street_Address": "645 Griswold", "City_1": "Detroit", "State_1": "MI", "Zip_1": "48226", "Phone_Number": "(313) 444-1441" }, "geometry": { "type": "Point", "coordinates": [ -83.0473646460065, 42.330215457325401 ] } },
{ "type": "Feature", "properties": { "ObjectID": 181, "X": 13482322.912196999, "Y": 311168.67381100002, "Name": "Vivio’s Food & Spirits", "Street_Address": "2460 Market St", "City_1": "Detroit", "State_1": "MI", "Zip_1": "48207", "Phone_Number": "(313) 393-1711" }, "geometry": { "type": "Point", "coordinates": [ -83.038735538645597, 42.3460845676586 ] } },
{ "type": "Feature", "properties": { "ObjectID": 182, "X": 13475827.191132, "Y": 313499.99301500001, "Name": "The Whitney", "Street_Address": "4421 Woodward Ave", "City_1": "Detroit", "State_1": "MI", "Zip_1": "48201", "Phone_Number": "(313) 832-5700" }, "geometry": { "type": "Point", "coordinates": [ -83.062628038220694, 42.352759768751 ] } },
{ "type": "Feature", "properties": { "ObjectID": 183, "X": 13474772.880292, "Y": 313192.51562299998, "Name": "Fresh Corner Café", "Street_Address": "4444 Second Ave", "City_1": "Detroit", "State_1": "MI", "Zip_1": "48201", "Phone_Number": "(313) 444-5027" }, "geometry": { "type": "Point", "coordinates": [ -83.066545659589494, 42.351960861969701 ] } },
{ "type": "Feature", "properties": { "ObjectID": 184, "X": 13482142.835907999, "Y": 311358.06942700001, "Name": "Farmers Restaurant", "Street_Address": "2542 Market St", "City_1": "Detroit", "State_1": "MI", "Zip_1": "48207", "Phone_Number": "(313) 259-8230" }, "geometry": { "type": "Point", "coordinates": [ -83.039390548420002, 42.3466120159582 ] } },
{ "type": "Feature", "properties": { "ObjectID": 185, "X": 13481662.696129, "Y": 305525.33185299998, "Name": "Rice Bowl Fresh Asian Kitchen", "Street_Address": "333 E Jefferson, Ste 270", "City_1": "Detroit", "State_1": "MI", "Zip_1": "48226", "Phone_Number": "(313) 963-3200" }, "geometry": { "type": "Point", "coordinates": [ -83.041506067670795, 42.3306291200469 ] } },
{ "type": "Feature", "properties": { "ObjectID": 186, "X": 13481612.263107, "Y": 307323.843857, "Name": "Monroe Street Steakhouse", "Street_Address": "561 Monroe St", "City_1": "Detroit", "State_1": "MI", "Zip_1": "48226", "Phone_Number": "(313) 961-3636" }, "geometry": { "type": "Point", "coordinates": [ -83.041587880856596, 42.3355659901693 ] } },
{ "type": "Feature", "properties": { "ObjectID": 187, "X": 13481463.058424, "Y": 312220.73513, "Name": "People’s Pierogi Collective", "Street_Address": "2934 Russell St", "City_1": "Detroit", "State_1": "MI", "Zip_1": "48207", "Phone_Number": null }, "geometry": { "type": "Point", "coordinates": [ -83.041854676666304, 42.349008344447903 ] } },
{ "type": "Feature", "properties": { "ObjectID": 188, "X": 13480910.613374, "Y": 313452.393194, "Name": "Milano Bakery", "Street_Address": "3500 Russell St", "City_1": "Detroit", "State_1": "MI", "Zip_1": "48207", "Phone_Number": "(313) 833-8144" }, "geometry": { "type": "Point", "coordinates": [ -83.043826535954196, 42.352411558023697 ] } },
{ "type": "Feature", "properties": { "ObjectID": 189, "X": 13481160.073716, "Y": 312771.05273499998, "Name": "Sala Thai", "Street_Address": "3400 Russell St", "City_1": "Detroit", "State_1": "MI", "Zip_1": "48207", "Phone_Number": "(313) 831-1302" }, "geometry": { "type": "Point", "coordinates": [ -83.042943383268394, 42.350531362585201 ] } },
{ "type": "Feature", "properties": { "ObjectID": 191, "X": 13481486.409446999, "Y": 311598.41503899998, "Name": "Bert’s Marketplace", "Street_Address": "2727 Russell St", "City_1": "Detroit", "State_1": "MI", "Zip_1": "48207", "Phone_Number": "(313) 567-2030" }, "geometry": { "type": "Point", "coordinates": [ -83.041804529038203, 42.347299836861502 ] } },
{ "type": "Feature", "properties": { "ObjectID": 192, "X": 13475113.499020999, "Y": 313948.66252100002, "Name": "Midtown Shangri-La", "Street_Address": "4710 Cass Ave", "City_1": "Detroit", "State_1": "MI", "Zip_1": "48201", "Phone_Number": "(313) 974-7669" }, "geometry": { "type": "Point", "coordinates": [ -83.065242436215698, 42.354021118144203 ] } },
{ "type": "Feature", "properties": { "ObjectID": 193, "X": 13481457.010530001, "Y": 307229.17830299999, "Name": "Eat-N-Out Pizza & Gelato", "Street_Address": "531 Monroe Ave", "City_1": "Detroit", "State_1": "MI", "Zip_1": "48226", "Phone_Number": "(313) 800-5718" }, "geometry": { "type": "Point", "coordinates": [ -83.042167531018606, 42.3353129532682 ] } },
{ "type": "Feature", "properties": { "ObjectID": 194, "X": 13482018.959935, "Y": 310922.74345100002, "Name": "Schnäck", "Street_Address": "2457 Russel St", "City_1": "Detroit", "State_1": "MI", "Zip_1": "48207", "Phone_Number": null }, "geometry": { "type": "Point", "coordinates": [ -83.039874113750798, 42.345422942290597 ] } },
{ "type": "Feature", "properties": { "ObjectID": 195, "X": 13475338.994896, "Y": 305724.03095099999, "Name": "Nemo’s Bar", "Street_Address": "1384 Michigan Ave", "City_1": "Detroit", "State_1": "MI", "Zip_1": "48226", "Phone_Number": "(313) 965-3180" }, "geometry": { "type": "Point", "coordinates": [ -83.064878739363607, 42.3314450120007 ] } },
{ "type": "Feature", "properties": { "ObjectID": 196, "X": 13476101.042695001, "Y": 314309.75329299999, "Name": "Seva Detroit", "Street_Address": "66 E Forest Ave", "City_1": "Detroit", "State_1": "MI", "Zip_1": "48201", "Phone_Number": "(313) 974-6661" }, "geometry": { "type": "Point", "coordinates": [ -83.061568584890907, 42.354969923480397 ] } },
{ "type": "Feature", "properties": { "ObjectID": 197, "X": 13479337.026124001, "Y": 305074.76174599997, "Name": "Gateway Deli Cafe", "Street_Address": "333 West Fort", "City_1": "Detroit", "State_1": "MI", "Zip_1": "48226", "Phone_Number": "(313) 256-1900" }, "geometry": { "type": "Point", "coordinates": [ -83.050024853733802, 42.329323781057298 ] } },
{ "type": "Feature", "properties": { "ObjectID": 199, "X": 13474935.570659, "Y": 312791.850316, "Name": "Traffic Jam & Snug", "Street_Address": "511 W Canfield St", "City_1": "Detroit", "State_1": "MI", "Zip_1": "48201", "Phone_Number": "(313) 831-9470" }, "geometry": { "type": "Point", "coordinates": [ -83.065966750234907, 42.350854630931302 ] } },
{ "type": "Feature", "properties": { "ObjectID": 200, "X": 13471921.207006, "Y": 303467.03002000001, "Name": "Social Sushi Detroit", "Street_Address": "2545 Bagley Ave", "City_1": "Detroit", "State_1": "MI", "Zip_1": "48216", "Phone_Number": null }, "geometry": { "type": "Point", "coordinates": [ -83.077645158689293, 42.325396598022301 ] } },
{ "type": "Feature", "properties": { "ObjectID": 201, "X": 13480502.497561, "Y": 306605.62599899998, "Name": "Mr. Kabob Grille & Catering", "Street_Address": "119 Monroe St", "City_1": "Detroit", "State_1": "MI", "Zip_1": "48226", "Phone_Number": "(313) 496-6666" }, "geometry": { "type": "Point", "coordinates": [ -83.045733600487793, 42.333643221435302 ] } },
{ "type": "Feature", "properties": { "ObjectID": 202, "X": 13474550.515937001, "Y": 308622.41151100001, "Name": "Assembly Line Buffet", "Street_Address": "2901 Grand River Ave", "City_1": "Detroit", "State_1": "MI", "Zip_1": "48201", "Phone_Number": null }, "geometry": { "type": "Point", "coordinates": [ -83.067629065308694, 42.339430937035303 ] } },
{ "type": "Feature", "properties": { "ObjectID": 203, "X": 13475052.653856, "Y": 314375.99527399999, "Name": "Blimpie", "Street_Address": "108 W Hancock St", "City_1": "Detroit", "State_1": "MI", "Zip_1": "48201", "Phone_Number": "(313) 831-0711" }, "geometry": { "type": "Point", "coordinates": [ -83.065443082486098, 42.3551962043285 ] } },
{ "type": "Feature", "properties": { "ObjectID": 204, "X": 13478272.308901001, "Y": 304662.12096500001, "Name": "Press Room", "Street_Address": "615 W Lafayette", "City_1": "Detroit", "State_1": "MI", "Zip_1": "48226", "Phone_Number": "(313) 373-8670" }, "geometry": { "type": "Point", "coordinates": [ -83.054092918610607, 42.328406404141397 ] } },
{ "type": "Feature", "properties": { "ObjectID": 205, "X": 13474550.515937001, "Y": 308622.41151100001, "Name": "The Lodge Diner", "Street_Address": "2901 Grand River Ave", "City_1": "Detroit", "State_1": "MI", "Zip_1": "48201", "Phone_Number": null }, "geometry": { "type": "Point", "coordinates": [ -83.067629065308694, 42.339430937035303 ] } },
{ "type": "Feature", "properties": { "ObjectID": 206, "X": 13481289.969901999, "Y": 313732.324441, "Name": "Louie’s Ham And Corned Beef", "Street_Address": "3570 Riopelle St", "City_1": "Detroit", "State_1": "MI", "Zip_1": "48207", "Phone_Number": "(313) 831-1800" }, "geometry": { "type": "Point", "coordinates": [ -83.042406965152495, 42.353163259549298 ] } },
{ "type": "Feature", "properties": { "ObjectID": 207, "X": 13480081.118601, "Y": 305349.72676699999, "Name": "Carnival Fresh Mex", "Street_Address": "645 Griswold St", "City_1": "Detroit", "State_1": "MI", "Zip_1": "48226", "Phone_Number": "(313) 223-1400" }, "geometry": { "type": "Point", "coordinates": [ -83.0473646460065, 42.330215457325401 ] } },
{ "type": "Feature", "properties": { "ObjectID": 208, "X": 13480975.48962, "Y": 306939.39697599999, "Name": "The Old Shillelagh", "Street_Address": "349 Monroe St", "City_1": "Detroit", "State_1": "MI", "Zip_1": "48226", "Phone_Number": "(313) 964-0007" }, "geometry": { "type": "Point", "coordinates": [ -83.043965082340407, 42.334538634078498 ] } },
{ "type": "Feature", "properties": { "ObjectID": 209, "X": 13475653.768170999, "Y": 312308.046822, "Name": "Slows To Go", "Street_Address": "4107 Cass Ave", "City_1": "Detroit", "State_1": "MI", "Zip_1": "48201", "Phone_Number": "(313) 309-7560" }, "geometry": { "type": "Point", "coordinates": [ -83.063337817399301, 42.349496706522899 ] } },
{ "type": "Feature", "properties": { "ObjectID": 210, "X": 13478225.88525, "Y": 308214.19746200001, "Name": "The Town Pump Tavern", "Street_Address": "100 W Montcalm St", "City_1": "Detroit", "State_1": "MI", "Zip_1": "48201", "Phone_Number": "(313) 961-1929" }, "geometry": { "type": "Point", "coordinates": [ -83.054059790548095, 42.3381544706534 ] } },
{ "type": "Feature", "properties": { "ObjectID": 211, "X": 13480009.853664, "Y": 306030.27626999997, "Name": "Freshii", "Street_Address": "1001 Woodward", "City_1": "Detroit", "State_1": "MI", "Zip_1": "48226", "Phone_Number": "(313) 237-0700" }, "geometry": { "type": "Point", "coordinates": [ -83.0475271811178, 42.332026034187798 ] } },
{ "type": "Feature", "properties": { "ObjectID": 212, "X": 13482428.71091, "Y": 305941.40046700003, "Name": "Nathan’s Deli", "Street_Address": "581 E Jefferson Ave", "City_1": "Detroit", "State_1": "MI", "Zip_1": "48226", "Phone_Number": "(313) 962-3354" }, "geometry": { "type": "Point", "coordinates": [ -83.0386492113402, 42.331737595191399 ] } },
{ "type": "Feature", "properties": { "ObjectID": 213, "X": 13479915.289841, "Y": 305509.09180900001, "Name": "Mike’s Kabob Grille", "Street_Address": "719 Griswold St", "City_1": "Detroit", "State_1": "MI", "Zip_1": "48226", "Phone_Number": "(313) 662-9927" }, "geometry": { "type": "Point", "coordinates": [ -83.047968617267003, 42.330659846860698 ] } },
{ "type": "Feature", "properties": { "ObjectID": 215, "X": 13490709.855046, "Y": 310622.22197499999, "Name": "Le Petit Dejeuner", "Street_Address": "6470 E Jefferson", "City_1": "Detroit", "State_1": "MI", "Zip_1": "48207", "Phone_Number": null }, "geometry": { "type": "Point", "coordinates": [ -83.007747250888599, 42.344218021036397 ] } },
{ "type": "Feature", "properties": { "ObjectID": 216, "X": 13475516.72855, "Y": 312644.22565899999, "Name": "Alley Taco", "Street_Address": "418 W Willis", "City_1": "Detroit", "State_1": "MI", "Zip_1": "48201", "Phone_Number": "(313) 818-0067" }, "geometry": { "type": "Point", "coordinates": [ -83.063825475822995, 42.3504249253035 ] } },
{ "type": "Feature", "properties": { "ObjectID": 217, "X": 13480736.673331, "Y": 306837.66736199998, "Name": "The Baltimore", "Street_Address": "1234 Randolph", "City_1": "Detroit", "State_1": "MI", "Zip_1": "48226", "Phone_Number": "(313) 964-2728" }, "geometry": { "type": "Point", "coordinates": [ -83.044775932732705, 42.334551794021799 ] } },
{ "type": "Feature", "properties": { "ObjectID": 218, "X": 13483759.968542, "Y": 308058.44950500003, "Name": "Urban Soul", "Street_Address": "1535 E Lafayette St", "City_1": "Detroit", "State_1": "MI", "Zip_1": "48207", "Phone_Number": null }, "geometry": { "type": "Point", "coordinates": [ -83.033602411556203, 42.337488541375997 ] } },
{ "type": "Feature", "properties": { "ObjectID": 219, "X": 13473815.691761, "Y": 313341.54840600002, "Name": "Harmony Garden Cafe", "Street_Address": "4704 Anthony Wayne Dr", "City_1": "Detroit", "State_1": "MI", "Zip_1": "48201", "Phone_Number": "(313) 638-2345" }, "geometry": { "type": "Point", "coordinates": [ -83.070077910371296, 42.352410278715098 ] } },
{ "type": "Feature", "properties": { "ObjectID": 220, "X": 13473176.904048, "Y": 305789.76314699999, "Name": "White Castle", "Street_Address": "1930 Michigan Ave", "City_1": "Detroit", "State_1": "MI", "Zip_1": "48216", "Phone_Number": null }, "geometry": { "type": "Point", "coordinates": [ -83.0728701854256, 42.331716817357197 ] } },
{ "type": "Feature", "properties": { "ObjectID": 221, "X": 13475220.908895001, "Y": 313758.539185, "Name": "Cass Cafe", "Street_Address": "4620 Cass Ave", "City_1": "Detroit", "State_1": "MI", "Zip_1": "48201", "Phone_Number": "(313) 831-1400" }, "geometry": { "type": "Point", "coordinates": [ -83.0648559788889, 42.3534949059217 ] } },
{ "type": "Feature", "properties": { "ObjectID": 222, "X": 13466609.391589999, "Y": 300951.54127300001, "Name": "Antojitos El Catracho", "Street_Address": "4627 W Vernor Hwy", "City_1": "Detroit", "State_1": "MI", "Zip_1": "48209", "Phone_Number": "(313) 209-4815" }, "geometry": { "type": "Point", "coordinates": [ -83.097426100150201, 42.3187160785426 ] } },
{ "type": "Feature", "properties": { "ObjectID": 223, "X": 13480187.450129, "Y": 308385.71201999998, "Name": "Elwood Bar & Grill", "Street_Address": "300 E Adams Ave", "City_1": "Detroit", "State_1": "MI", "Zip_1": "48226", "Phone_Number": "(313) 962-2337" }, "geometry": { "type": "Point", "coordinates": [ -83.046795443432302, 42.3385409183484 ] } },
{ "type": "Feature", "properties": { "ObjectID": 224, "X": 13479305.837419, "Y": 308024.23975800001, "Name": "Cheli’s Chili Bar", "Street_Address": "47 E Adams Ave", "City_1": "Detroit", "State_1": "MI", "Zip_1": "48226", "Phone_Number": "(313) 961-1700" }, "geometry": { "type": "Point", "coordinates": [ -83.0500768172584, 42.337587000167403 ] } },
{ "type": "Feature", "properties": { "ObjectID": 225, "X": 13480081.118601, "Y": 305349.72676699999, "Name": "Athens Souvlaki", "Street_Address": "645 Griswold St", "City_1": "Detroit", "State_1": "MI", "Zip_1": "48226", "Phone_Number": "(313) 265-3178" }, "geometry": { "type": "Point", "coordinates": [ -83.0473646460065, 42.330215457325401 ] } },
{ "type": "Feature", "properties": { "ObjectID": 226, "X": 13483399.447392, "Y": 312366.367792, "Name": "Louisiana Creole Gumbo", "Street_Address": "2051 Gratiot Ave", "City_1": "Detroit", "State_1": "MI", "Zip_1": "48207", "Phone_Number": "(313) 446-9639" }, "geometry": { "type": "Point", "coordinates": [ -83.034683630071001, 42.349324090043297 ] } },
{ "type": "Feature", "properties": { "ObjectID": 227, "X": 13481550.597738, "Y": 307082.247302, "Name": "Five Guys", "Street_Address": "508 Monroe St", "City_1": "Detroit", "State_1": "MI", "Zip_1": "48226", "Phone_Number": "(313) 237-7777" }, "geometry": { "type": "Point", "coordinates": [ -83.0419836678156, 42.334850983027103 ] } },
{ "type": "Feature", "properties": { "ObjectID": 228, "X": 13482090.3277559, "Y": 304715.708989501, "Name": "Potbelly Sandwich Shop", "Street_Address": "300 Ren Ctr", "City_1": "Detroit", "State_1": "MI", "Zip_1": "48243", "Phone_Number": "(313) 566-0028" }, "geometry": { "type": "Point", "coordinates": [ -83.039971942214905, 42.328389227311099 ] } },
{ "type": "Feature", "properties": { "ObjectID": 229, "X": 13478871.878180001, "Y": 307755.15809699998, "Name": "Subway", "Street_Address": "28 W Adams Ave Lbby 2", "City_1": "Detroit", "State_1": "MI", "Zip_1": "48226", "Phone_Number": "(313) 963-9166" }, "geometry": { "type": "Point", "coordinates": [ -83.051697246596504, 42.336867312048 ] } },
{ "type": "Feature", "properties": { "ObjectID": 230, "X": 13478586.060536999, "Y": 308508.57352400001, "Name": "Hockeytown Cafe", "Street_Address": "2301 Woodward Ave", "City_1": "Detroit", "State_1": "MI", "Zip_1": "48201", "Phone_Number": "(313) 965-9500" }, "geometry": { "type": "Point", "coordinates": [ -83.052710769818304, 42.338946754225603 ] } },
{ "type": "Feature", "properties": { "ObjectID": 231, "X": 13481430.807231, "Y": 307182.4788, "Name": "Pappy’s Bar & Grill", "Street_Address": "517 Monroe St", "City_1": "Detroit", "State_1": "MI", "Zip_1": "48226", "Phone_Number": "(313) 983-4000" }, "geometry": { "type": "Point", "coordinates": [ -83.042267150771906, 42.335185952034799 ] } },
{ "type": "Feature", "properties": { "ObjectID": 232, "X": 13477482.149909999, "Y": 310882.6443, "Name": "Top China One", "Street_Address": "3157 Woodward Ave", "City_1": "Detroit", "State_1": "MI", "Zip_1": "48201", "Phone_Number": "(313) 832-1111" }, "geometry": { "type": "Point", "coordinates": [ -83.056656766458801, 42.345507861597703 ] } },
{ "type": "Feature", "properties": { "ObjectID": 233, "X": 13480712.991069, "Y": 307291.532618, "Name": "Chrome Bar and Grille", "Street_Address": "351 Gratiot Ave", "City_1": "Detroit", "State_1": "MI", "Zip_1": "48226", "Phone_Number": "(313) 967-0900" }, "geometry": { "type": "Point", "coordinates": [ -83.045100692081206, 42.335673133758903 ] } },
{ "type": "Feature", "properties": { "ObjectID": 234, "X": 13473788.960137, "Y": 316795.66249000002, "Name": "Tony V’s Tavern", "Street_Address": "5756 Cass Ave", "City_1": "Detroit", "State_1": "MI", "Zip_1": "48202", "Phone_Number": "(313) 833-5595" }, "geometry": { "type": "Point", "coordinates": [ -83.069979991926004, 42.361888727205603 ] } },
{ "type": "Feature", "properties": { "ObjectID": 235, "X": 13480059.530063, "Y": 305720.61166699999, "Name": "Potbelly Sandwich Shop", "Street_Address": "777 Woodward Ave", "City_1": "Detroit", "State_1": "MI", "Zip_1": "48226", "Phone_Number": "(313) 309-4197" }, "geometry": { "type": "Point", "coordinates": [ -83.047422983580802, 42.331234006998798 ] } },
{ "type": "Feature", "properties": { "ObjectID": 236, "X": 13477345.490367999, "Y": 311147.493051, "Name": "Detroit One Coney Island", "Street_Address": "3433 Woodward Ave", "City_1": "Detroit", "State_1": "MI", "Zip_1": "48201", "Phone_Number": "(313) 832-7380" }, "geometry": { "type": "Point", "coordinates": [ -83.057146993139895, 42.346240379574603 ] } },
{ "type": "Feature", "properties": { "ObjectID": 237, "X": 13484725.538301, "Y": 312799.54370500002, "Name": "Mr Fish", "Street_Address": "2629 E Vernor Hwy", "City_1": "Detroit", "State_1": "MI", "Zip_1": "48207", "Phone_Number": null }, "geometry": { "type": "Point", "coordinates": [ -83.029753077658199, 42.350454945678898 ] } },
{ "type": "Feature", "properties": { "ObjectID": 238, "X": 13481488.828095, "Y": 307248.19559600001, "Name": "The Greek", "Street_Address": "535 Monroe Ave", "City_1": "Detroit", "State_1": "MI", "Zip_1": "48226", "Phone_Number": "(313) 209-6667" }, "geometry": { "type": "Point", "coordinates": [ -83.042048759790205, 42.335363758937703 ] } },
{ "type": "Feature", "properties": { "ObjectID": 239, "X": 13479929.936526, "Y": 306157.56179000001, "Name": "Slices", "Street_Address": "1043 Woodward Ave", "City_1": "Detroit", "State_1": "MI", "Zip_1": "48226", "Phone_Number": "(313) 963-8800" }, "geometry": { "type": "Point", "coordinates": [ -83.047840843075306, 42.332459800337197 ] } },
{ "type": "Feature", "properties": { "ObjectID": 240, "X": 13467340.056205999, "Y": 305657.47756000003, "Name": "Mike’s Famous Ham Place", "Street_Address": "3700 Michigan Ave", "City_1": "Detroit", "State_1": "MI", "Zip_1": "48216", "Phone_Number": "(313) 894-6922" }, "geometry": { "type": "Point", "coordinates": [ -83.094461798454901, 42.331597923869502 ] } },
{ "type": "Feature", "properties": { "ObjectID": 241, "X": 13476507.041417001, "Y": 312814.44993499998, "Name": "Sgt. Pepperoni’s", "Street_Address": "4120 Woodward Ave", "City_1": "Detroit", "State_1": "MI", "Zip_1": "48201", "Phone_Number": "(313) 833-7272" }, "geometry": { "type": "Point", "coordinates": [ -83.060152528810605, 42.350849871855502 ] } },
{ "type": "Feature", "properties": { "ObjectID": 242, "X": 13478524.227313001, "Y": 306624.20839300001, "Name": "Nick’s Gaslight Restaurant & Lounge", "Street_Address": "441 Grand River Ave", "City_1": "Detroit", "State_1": "MI", "Zip_1": "48226", "Phone_Number": "(313) 963-9191" }, "geometry": { "type": "Point", "coordinates": [ -83.0530481918655, 42.333779138673897 ] } },
{ "type": "Feature", "properties": { "ObjectID": 243, "X": 13472751.074333001, "Y": 307148.34545899997, "Name": "Pink FlaminGO! Mobile Restaurant", "Street_Address": "2737 - 2747 Rosa Parks", "City_1": "Detroit", "State_1": "MI", "Zip_1": "48216", "Phone_Number": null }, "geometry": { "type": "Point", "coordinates": [ -83.074367746243993, 42.3354624137367 ] } },
{ "type": "Feature", "properties": { "ObjectID": 244, "X": 13482193.808239, "Y": 305140.64081800001, "Name": "Zoup!", "Street_Address": "200 Renaissance Ctr", "City_1": "Detroit", "State_1": "MI", "Zip_1": "48243", "Phone_Number": "(313) 567-7500" }, "geometry": { "type": "Point", "coordinates": [ -83.039564533576197, 42.329550664116802 ] } },
{ "type": "Feature", "properties": { "ObjectID": 245, "X": 13477847.710162999, "Y": 307738.652282, "Name": "Bookies Bar & Grille", "Street_Address": "2208 Cass Ave", "City_1": "Detroit", "State_1": "MI", "Zip_1": "48201", "Phone_Number": "(313) 962-0319" }, "geometry": { "type": "Point", "coordinates": [ -83.055485777999706, 42.336865853275903 ] } },
{ "type": "Feature", "properties": { "ObjectID": 246, "X": 13474550.515937001, "Y": 308622.41151100001, "Name": "MotorCity Casino Buffet", "Street_Address": "2901 Grand River Ave", "City_1": "Detroit", "State_1": "MI", "Zip_1": "48201", "Phone_Number": null }, "geometry": { "type": "Point", "coordinates": [ -83.067629065308694, 42.339430937035303 ] } },
{ "type": "Feature", "properties": { "ObjectID": 247, "X": 13469217.436248999, "Y": 302788.84194200003, "Name": "Sicily’s Pizzeria & Subs", "Street_Address": "3554 W Vernor Hwy", "City_1": "Detroit", "State_1": "MI", "Zip_1": "48216", "Phone_Number": "(313) 554-0755" }, "geometry": { "type": "Point", "coordinates": [ -83.0876805700576, 42.323648943591301 ] } },
{ "type": "Feature", "properties": { "ObjectID": 248, "X": 13480178.324881, "Y": 305232.810153, "Name": "Jimmy John’s", "Street_Address": "615 Griswold St", "City_1": "Detroit", "State_1": "MI", "Zip_1": "48226", "Phone_Number": "(313) 963-1044" }, "geometry": { "type": "Point", "coordinates": [ -83.047011973061601, 42.329890485028002 ] } },
{ "type": "Feature", "properties": { "ObjectID": 249, "X": 13482472.574669, "Y": 311318.83985, "Name": "Beau Bien Fine Foods", "Street_Address": "2478 Riopelle St", "City_1": "Detroit", "State_1": "MI", "Zip_1": "48207", "Phone_Number": "(313) 800-1363" }, "geometry": { "type": "Point", "coordinates": [ -83.038173210796501, 42.346490108690602 ] } },
{ "type": "Feature", "properties": { "ObjectID": 250, "X": 13476552.563206, "Y": 306423.38043800002, "Name": "Crunch at Breeze", "Street_Address": "1777 Third St", "City_1": "Detroit", "State_1": "MI", "Zip_1": "48226", "Phone_Number": "(877) 888-2121" }, "geometry": { "type": "Point", "coordinates": [ -83.060350974968301, 42.3333122916017 ] } },
{ "type": "Feature", "properties": { "ObjectID": 251, "X": 13484260.730482001, "Y": 306646.765916, "Name": "Papa’s Pizza & BBQ", "Street_Address": "1404 Jefferson Ave", "City_1": "Detroit", "State_1": "MI", "Zip_1": "48207", "Phone_Number": null }, "geometry": { "type": "Point", "coordinates": [ -83.031833260061404, 42.333593451501301 ] } },
{ "type": "Feature", "properties": { "ObjectID": 252, "X": 13476606.10283, "Y": 303542.18107200001, "Name": "Coney King Coney Island", "Street_Address": "1350 W Fort St", "City_1": "Detroit", "State_1": "MI", "Zip_1": "48226", "Phone_Number": null }, "geometry": { "type": "Point", "coordinates": [ -83.060318318927898, 42.325404654278699 ] } },
{ "type": "Feature", "properties": { "ObjectID": 253, "X": 13476507.0413386, "Y": 312814.44980314397, "Name": "The Alley Deck", "Street_Address": "4120 Woodward Ave", "City_1": "Detroit", "State_1": "MI", "Zip_1": "48218", "Phone_Number": "(313) 833-9700" }, "geometry": { "type": "Point", "coordinates": [ -83.060152528810605, 42.350849871855502 ] } },
{ "type": "Feature", "properties": { "ObjectID": 254, "X": 13479643.560636001, "Y": 308607.313395, "Name": "Bacardi Champions Club", "Street_Address": "2100 Woodward Ave", "City_1": "Detroit", "State_1": "MI", "Zip_1": "48201", "Phone_Number": null }, "geometry": { "type": "Point", "coordinates": [ -83.048794078726004, 42.339172319491503 ] } },
{ "type": "Feature", "properties": { "ObjectID": 255, "X": 13480081.118601, "Y": 305349.72676699999, "Name": "Drive Table Tennis Social Club", "Street_Address": "645 Griswold St", "City_1": "Detroit", "State_1": "MI", "Zip_1": "48226", "Phone_Number": "(313) 962-1830" }, "geometry": { "type": "Point", "coordinates": [ -83.0473646460065, 42.330215457325401 ] } },
{ "type": "Feature", "properties": { "ObjectID": 256, "X": 13475239.65508, "Y": 315197.758218, "Name": "Maccabees Traders", "Street_Address": "5057 Woodward Ave", "City_1": "Detroit", "State_1": "MI", "Zip_1": "48202", "Phone_Number": "(313) 831-9311" }, "geometry": { "type": "Point", "coordinates": [ -83.0647042960844, 42.357443003524402 ] } },
{ "type": "Feature", "properties": { "ObjectID": 257, "X": 13480520.652686, "Y": 307237.15272299998, "Name": "Centre Park Bar", "Street_Address": "1407 Randolph St", "City_1": "Detroit", "State_1": "MI", "Zip_1": "48226", "Phone_Number": "(313) 962-4999" }, "geometry": { "type": "Point", "coordinates": [ -83.045629817126596, 42.335375200716697 ] } },
{ "type": "Feature", "properties": { "ObjectID": 258, "X": 13479676.263426, "Y": 307867.835456, "Name": "Cadillac Cafe", "Street_Address": "140 Madison St", "City_1": "Detroit", "State_1": "MI", "Zip_1": "48226", "Phone_Number": "(313) 237-3487" }, "geometry": { "type": "Point", "coordinates": [ -83.048715947437799, 42.337141959354398 ] } },
{ "type": "Feature", "properties": { "ObjectID": 259, "X": 13467434.061781, "Y": 305676.80767499999, "Name": "Hygrade Deli", "Street_Address": "3640 Michigan Ave", "City_1": "Detroit", "State_1": "MI", "Zip_1": "48216", "Phone_Number": "(313) 894-6620" }, "geometry": { "type": "Point", "coordinates": [ -83.094113093164594, 42.331647063148502 ] } },
{ "type": "Feature", "properties": { "ObjectID": 261, "X": 13482193.808239, "Y": 305140.64081800001, "Name": "Bozii", "Street_Address": "200 Renaissance Ctr", "City_1": "Detroit", "State_1": "MI", "Zip_1": "48243", "Phone_Number": "(313) 656-4917" }, "geometry": { "type": "Point", "coordinates": [ -83.039564533576197, 42.329550664116802 ] } },
{ "type": "Feature", "properties": { "ObjectID": 262, "X": 13481488.828095, "Y": 307248.19559600001, "Name": "Level Two Bar & Rooftop", "Street_Address": "535 Monroe St", "City_1": "Detroit", "State_1": "MI", "Zip_1": "48226", "Phone_Number": "(313) 420-1990" }, "geometry": { "type": "Point", "coordinates": [ -83.042048759790205, 42.335363758937703 ] } },
{ "type": "Feature", "properties": { "ObjectID": 263, "X": 13480570.207008, "Y": 305524.34252100001, "Name": "Woodward Coney Restaurant", "Street_Address": "616 Woodward Ave", "City_1": "Detroit", "State_1": "MI", "Zip_1": "48226", "Phone_Number": "(313) 961-9900" }, "geometry": { "type": "Point", "coordinates": [ -83.045545960468104, 42.3306735178137 ] } },
{ "type": "Feature", "properties": { "ObjectID": 264, "X": 13480312.325903, "Y": 304694.9037, "Name": "Terrace Cafe", "Street_Address": "150 W Jefferson Ave", "City_1": "Detroit", "State_1": "MI", "Zip_1": "48226", "Phone_Number": "(313) 237-1010" }, "geometry": { "type": "Point", "coordinates": [ -83.046547656851899, 42.328408830946401 ] } },
{ "type": "Feature", "properties": { "ObjectID": 265, "X": 13478427.195247, "Y": 306991.83536500001, "Name": "Coaches Corner", "Street_Address": "220 Bagley Ave", "City_1": "Detroit", "State_1": "MI", "Zip_1": "48226", "Phone_Number": "(313) 963-4000" }, "geometry": { "type": "Point", "coordinates": [ -83.0533858108505, 42.334791976035497 ] } },
{ "type": "Feature", "properties": { "ObjectID": 266, "X": 13481378.114184, "Y": 306664.409162, "Name": "Loco’s Tex-Mex Grille", "Street_Address": "454 E Lafayette", "City_1": "Detroit", "State_1": "MI", "Zip_1": "48226", "Phone_Number": "(313) 965-3737" }, "geometry": { "type": "Point", "coordinates": [ -83.042085709509394, 42.333854933005703 ] } },
{ "type": "Feature", "properties": { "ObjectID": 267, "X": 13475074.729970001, "Y": 316309.05557500001, "Name": "International Mini-Café", "Street_Address": "111 E Kirby", "City_1": "Detroit", "State_1": "MI", "Zip_1": "48202", "Phone_Number": "(313) 377-2555" }, "geometry": { "type": "Point", "coordinates": [ -83.065250871426002, 42.360499149492099 ] } },
{ "type": "Feature", "properties": { "ObjectID": 268, "X": 13480312.325903, "Y": 304694.9037, "Name": "TJ’s Grillworks", "Street_Address": "150 W Jefferson Ave", "City_1": "Detroit", "State_1": "MI", "Zip_1": "48226", "Phone_Number": "(313) 963-7900" }, "geometry": { "type": "Point", "coordinates": [ -83.046547656851899, 42.328408830946401 ] } },
{ "type": "Feature", "properties": { "ObjectID": 269, "X": 13469835.346255001, "Y": 302601.50276200002, "Name": "Mexican Town Restaurant", "Street_Address": "3457 Bagley St", "City_1": "Detroit", "State_1": "MI", "Zip_1": "48216", "Phone_Number": "(313) 841-5811" }, "geometry": { "type": "Point", "coordinates": [ -83.085406426316098, 42.323109144610598 ] } },
{ "type": "Feature", "properties": { "ObjectID": 270, "X": 13474709.323135, "Y": 313029.583667, "Name": "Maya’s Indo-Pak Cuisine", "Street_Address": "4445 2nd Ave", "City_1": "Detroit", "State_1": "MI", "Zip_1": "48201", "Phone_Number": "(313) 262-6204" }, "geometry": { "type": "Point", "coordinates": [ -83.066790069891198, 42.351516505726998 ] } },
{ "type": "Feature", "properties": { "ObjectID": 271, "X": 13467311.626274999, "Y": 301753.72769600002, "Name": "Armando’s", "Street_Address": "4242 W Vernor Hwy", "City_1": "Detroit", "State_1": "MI", "Zip_1": "48209", "Phone_Number": "(844) 581-0951" }, "geometry": { "type": "Point", "coordinates": [ -83.094785023142805, 42.320888030940303 ] } },
{ "type": "Feature", "properties": { "ObjectID": 272, "X": 13466912.435338, "Y": 301466.17928899999, "Name": "PizzaPlex", "Street_Address": "4458 Vernor Hwy", "City_1": "Detroit", "State_1": "MI", "Zip_1": "48209", "Phone_Number": "(313) 757-4992" }, "geometry": { "type": "Point", "coordinates": [ -83.096276988632198, 42.320115595747801 ] } },
{ "type": "Feature", "properties": { "ObjectID": 273, "X": 13474852.861012001, "Y": 316286.903231, "Name": "Fourteen East", "Street_Address": "15 E Kirby St", "City_1": "Detroit", "State_1": "MI", "Zip_1": "48202", "Phone_Number": "(313) 871-0500" }, "geometry": { "type": "Point", "coordinates": [ -83.066072966545207, 42.360447776445604 ] } },
{ "type": "Feature", "properties": { "ObjectID": 274, "X": 13488924.782946, "Y": 309432.66391100001, "Name": "Tubby’s", "Street_Address": "3250 E Jefferson Ave", "City_1": "Detroit", "State_1": "MI", "Zip_1": "48207", "Phone_Number": null }, "geometry": { "type": "Point", "coordinates": [ -83.014420206517599, 42.341033039697798 ] } },
{ "type": "Feature", "properties": { "ObjectID": 275, "X": 13477580.255704001, "Y": 304015.58444100001, "Name": "Subway", "Street_Address": "1001 W Fort St", "City_1": "Detroit", "State_1": "MI", "Zip_1": "48226", "Phone_Number": "(313) 962-1307" }, "geometry": { "type": "Point", "coordinates": [ -83.056689125771896, 42.326662031629297 ] } },
{ "type": "Feature", "properties": { "ObjectID": 276, "X": 13487275.175519001, "Y": 308452.79963800003, "Name": "Lucky Dragon", "Street_Address": "2664 E Jefferson Ave", "City_1": "Detroit", "State_1": "MI", "Zip_1": "48207", "Phone_Number": null }, "geometry": { "type": "Point", "coordinates": [ -83.020579100603001, 42.3384170713529 ] } },
{ "type": "Feature", "properties": { "ObjectID": 277, "X": 13488271.745433999, "Y": 309321.02291300002, "Name": "PizzaPapalis - Rivertown", "Street_Address": "3171 E Jefferson Ave", "City_1": "Detroit", "State_1": "MI", "Zip_1": "48207", "Phone_Number": null }, "geometry": { "type": "Point", "coordinates": [ -83.016842035009205, 42.340755479335201 ] } },
{ "type": "Feature", "properties": { "ObjectID": 278, "X": 13481037.808331, "Y": 312776.196941, "Name": "Frank’s Deli & Grill", "Street_Address": "3405 Russell St", "City_1": "Detroit", "State_1": "MI", "Zip_1": "48207", "Phone_Number": "(313) 285-9551" }, "geometry": { "type": "Point", "coordinates": [ -83.043395344391399, 42.3505507505037 ] } },
{ "type": "Feature", "properties": { "ObjectID": 279, "X": 13479594.231393, "Y": 305032.446345, "Name": "Zoom Grill", "Street_Address": "211 W Fort St", "City_1": "Detroit", "State_1": "MI", "Zip_1": "48226", "Phone_Number": "(313) 964-5030" }, "geometry": { "type": "Point", "coordinates": [ -83.049183420279604, 42.3293658343933 ] } },
{ "type": "Feature", "properties": { "ObjectID": 280, "X": 13482419.096082, "Y": 310676.26771, "Name": "Cheech’s Chicken", "Street_Address": "1429 Gratiot Ave", "City_1": "Detroit", "State_1": "MI", "Zip_1": "48207", "Phone_Number": null }, "geometry": { "type": "Point", "coordinates": [ -83.0384085147127, 42.344729359181102 ] } },
{ "type": "Feature", "properties": { "ObjectID": 281, "X": 13474852.861012001, "Y": 316286.903231, "Name": "Wasabi Korean and Japanese Cuisine", "Street_Address": "15 E Kirby St", "City_1": "Detroit", "State_1": "MI", "Zip_1": "48202", "Phone_Number": "(313) 638-1272" }, "geometry": { "type": "Point", "coordinates": [ -83.066072966545207, 42.360447776445604 ] } },
{ "type": "Feature", "properties": { "ObjectID": 282, "X": 13471723.756511999, "Y": 303506.71010099998, "Name": "Mexican Village Restaurant", "Street_Address": "2600 Bagley St", "City_1": "Detroit", "State_1": "MI", "Zip_1": "48216", "Phone_Number": null }, "geometry": { "type": "Point", "coordinates": [ -83.078372994268193, 42.325513764463402 ] } },
{ "type": "Feature", "properties": { "ObjectID": 284, "X": 13481927.400824999, "Y": 304977.71265599999, "Name": "Forty-Two Degrees North", "Street_Address": "100 Renaissance Ctr", "City_1": "Detroit", "State_1": "MI", "Zip_1": "48243", "Phone_Number": null }, "geometry": { "type": "Point", "coordinates": [ -83.040559134448799, 42.329115146378903 ] } },
{ "type": "Feature", "properties": { "ObjectID": 285, "X": 13480395.474527, "Y": 305446.863832, "Name": "Qzine Cafe", "Street_Address": "635 Woodward Ave", "City_1": "Detroit", "State_1": "MI", "Zip_1": "48226", "Phone_Number": "(800) 863-4332" }, "geometry": { "type": "Point", "coordinates": [ -83.046196584508493, 42.330468456167701 ] } },
{ "type": "Feature", "properties": { "ObjectID": 286, "X": 13480749.392408, "Y": 306801.62031799997, "Name": "Buffalo Wild Wings", "Street_Address": "1218 Randolph Street", "City_1": "Detroit", "State_1": "MI", "Zip_1": "48226", "Phone_Number": "(313) 961-9453" }, "geometry": { "type": "Point", "coordinates": [ -83.044613823872794, 42.334299103150201 ] } },
{ "type": "Feature", "properties": { "ObjectID": 287, "X": 13475008.969399, "Y": 312600.36124499998, "Name": "Mario’s Restaurant", "Street_Address": "4222 2nd Ave", "City_1": "Detroit", "State_1": "MI", "Zip_1": "48201", "Phone_Number": "(313) 832-1616" }, "geometry": { "type": "Point", "coordinates": [ -83.065706190748699, 42.350326115812898 ] } },
{ "type": "Feature", "properties": { "ObjectID": 288, "X": 13480910.613374, "Y": 313452.393194, "Name": "Milano Cafe", "Street_Address": "3500 Russell St", "City_1": "Detroit", "State_1": "MI", "Zip_1": "48207", "Phone_Number": "(313) 833-9557" }, "geometry": { "type": "Point", "coordinates": [ -83.043826535954196, 42.352411558023697 ] } },
{ "type": "Feature", "properties": { "ObjectID": 289, "X": 13480312.325903, "Y": 304694.9037, "Name": "150 Cafe Lounge", "Street_Address": "150 W Jefferson", "City_1": "Detroit", "State_1": "MI", "Zip_1": "48226", "Phone_Number": "(313) 964-0150" }, "geometry": { "type": "Point", "coordinates": [ -83.046547656851899, 42.328408830946401 ] } },
{ "type": "Feature", "properties": { "ObjectID": 290, "X": 13468359.974445, "Y": 302239.776709, "Name": "Taquería Chilango", "Street_Address": "3923 W Vernor Hwy", "City_1": "Detroit", "State_1": "MI", "Zip_1": "48216", "Phone_Number": null }, "geometry": { "type": "Point", "coordinates": [ -83.090881752873003, 42.322178123046697 ] } },
{ "type": "Feature", "properties": { "ObjectID": 291, "X": 13478146.854534, "Y": 306575.62941400002, "Name": "Luci and Ethel’s", "Street_Address": "400 Bagley St", "City_1": "Detroit", "State_1": "MI", "Zip_1": "48226", "Phone_Number": "(313) 962-2300" }, "geometry": { "type": "Point", "coordinates": [ -83.054446523486504, 42.3336619967776 ] } },
{ "type": "Feature", "properties": { "ObjectID": 292, "X": 13474853.601792, "Y": 314385.06692499999, "Name": "Sweet Lorraine’s Fabulous Mac n’ Brewz", "Street_Address": "4870 Cass Ave", "City_1": "Detroit", "State_1": "MI", "Zip_1": "48201", "Phone_Number": "(313) 782-4180" }, "geometry": { "type": "Point", "coordinates": [ -83.0661789168403, 42.355229533784801 ] } },
{ "type": "Feature", "properties": { "ObjectID": 293, "X": 13477370.277557001, "Y": 312758.95694800001, "Name": "Chiqui Mexican", "Street_Address": "3990 John R St", "City_1": "Detroit", "State_1": "MI", "Zip_1": "48201", "Phone_Number": "(313) 832-9422" }, "geometry": { "type": "Point", "coordinates": [ -83.056962584150796, 42.350660809544202 ] } },
{ "type": "Feature", "properties": { "ObjectID": 294, "X": 13469362.830436001, "Y": 302786.48711699998, "Name": "Giovanna’s Lounge", "Street_Address": "3537 W Vernor Hwy", "City_1": "Detroit", "State_1": "MI", "Zip_1": "48216", "Phone_Number": "(313) 554-9391" }, "geometry": { "type": "Point", "coordinates": [ -83.087143116454897, 42.323636420970097 ] } },
{ "type": "Feature", "properties": { "ObjectID": 295, "X": 13480502.497561, "Y": 306605.62599899998, "Name": "Cottage Inn Pizza", "Street_Address": "107 Monroe", "City_1": "Detroit", "State_1": "MI", "Zip_1": "48226", "Phone_Number": "(313) 782-4951" }, "geometry": { "type": "Point", "coordinates": [ -83.045733600487793, 42.333643221435302 ] } },
{ "type": "Feature", "properties": { "ObjectID": 296, "X": 13476322.866606001, "Y": 303449.24239700002, "Name": "Detroit Shawarma", "Street_Address": "1444 W Fort St", "City_1": "Detroit", "State_1": "MI", "Zip_1": "48216", "Phone_Number": null }, "geometry": { "type": "Point", "coordinates": [ -83.061370920952101, 42.325161705922802 ] } },
{ "type": "Feature", "properties": { "ObjectID": 297, "X": 13482090.327715, "Y": 304715.70891099999, "Name": "Panera Bread", "Street_Address": "300 Renaissance Ctr", "City_1": "Detroit", "State_1": "MI", "Zip_1": "48243", "Phone_Number": "(313) 818-4133" }, "geometry": { "type": "Point", "coordinates": [ -83.039971942214905, 42.328389227311099 ] } },
{ "type": "Feature", "properties": { "ObjectID": 298, "X": 13466363.444420001, "Y": 301140.955089, "Name": "El Paisa Taqueria Truck", "Street_Address": "Vernor Hwy And Lansing St", "City_1": "Detroit", "State_1": "MI", "Zip_1": "48209", "Phone_Number": null }, "geometry": { "type": "Point", "coordinates": [ -83.098324855014397, 42.319245960837598 ] } },
{ "type": "Feature", "properties": { "ObjectID": 299, "X": 13480737.63167, "Y": 305301.42881900002, "Name": "Kevin Osborn", "Street_Address": "500 Woodward Ave", "City_1": "Detroit", "State_1": "MI", "Zip_1": "48226", "Phone_Number": null }, "geometry": { "type": "Point", "coordinates": [ -83.044939794713699, 42.330054684314099 ] } },
{ "type": "Feature", "properties": { "ObjectID": 300, "X": 13481632.619431, "Y": 311505.99900700001, "Name": "Mike Coney Island", "Street_Address": "2719 Russell St", "City_1": "Detroit", "State_1": "MI", "Zip_1": "48207", "Phone_Number": "(313) 259-8151" }, "geometry": { "type": "Point", "coordinates": [ -83.041269107691306, 42.347039954674003 ] } },
{ "type": "Feature", "properties": { "ObjectID": 302, "X": 13482358.9376, "Y": 304876.434603, "Name": "Coney Town", "Street_Address": "400 Renaissance Ctr Lbby", "City_1": "Detroit", "State_1": "MI", "Zip_1": "48243", "Phone_Number": "(313) 259-8000" }, "geometry": { "type": "Point", "coordinates": [ -83.038969333293494, 42.328818601662803 ] } },
{ "type": "Feature", "properties": { "ObjectID": 303, "X": 13477301.216362, "Y": 313968.97306599998, "Name": "Delite Cafe Deli Detroit", "Street_Address": "320 E Canfield St", "City_1": "Detroit", "State_1": "MI", "Zip_1": "48201", "Phone_Number": "(313) 818-0274" }, "geometry": { "type": "Point", "coordinates": [ -83.057148421167895, 42.353983764097201 ] } },
{ "type": "Feature", "properties": { "ObjectID": 304, "X": 13480388.501892, "Y": 306957.31049, "Name": "Bert’s On Broadway", "Street_Address": "1315 Broadway St", "City_1": "Detroit", "State_1": "MI", "Zip_1": "48226", "Phone_Number": "(313) 962-5430" }, "geometry": { "type": "Point", "coordinates": [ -83.046134757361401, 42.334613067938903 ] } },
{ "type": "Feature", "properties": { "ObjectID": 305, "X": 13480435.926227, "Y": 307316.01440400002, "Name": "PV Lounge", "Street_Address": "1435 Randolph", "City_1": "Detroit", "State_1": "MI", "Zip_1": "48226", "Phone_Number": "(313) 962-4180" }, "geometry": { "type": "Point", "coordinates": [ -83.045938569094702, 42.335595226677398 ] } },
{ "type": "Feature", "properties": { "ObjectID": 306, "X": 13480438.509072, "Y": 306195.97403600003, "Name": "Tim Horton’s", "Street_Address": "49 Monroe St", "City_1": "Detroit", "State_1": "MI", "Zip_1": "48226", "Phone_Number": "(313) 962-5550" }, "geometry": { "type": "Point", "coordinates": [ -83.046190443000697, 42.332585260803199 ] } },
{ "type": "Feature", "properties": { "ObjectID": 307, "X": 13481927.400824999, "Y": 304977.71265599999, "Name": "Rice Bowl Express", "Street_Address": "100 Renaissance Ctr", "City_1": "Detroit", "State_1": "MI", "Zip_1": "48243", "Phone_Number": "(313) 259-3200" }, "geometry": { "type": "Point", "coordinates": [ -83.040559134448799, 42.329115146378903 ] } },
{ "type": "Feature", "properties": { "ObjectID": 308, "X": 13481037.808331, "Y": 312776.196941, "Name": "Wigley’s Meats & Produce", "Street_Address": "3405 Russell St", "City_1": "Detroit", "State_1": "MI", "Zip_1": "48207", "Phone_Number": "(313) 832-4299" }, "geometry": { "type": "Point", "coordinates": [ -83.043395344391399, 42.3505507505037 ] } },
{ "type": "Feature", "properties": { "ObjectID": 309, "X": 13479726.53224, "Y": 304993.479651, "Name": "Subway", "Street_Address": "220 W Congress St", "City_1": "Detroit", "State_1": "MI", "Zip_1": "48226", "Phone_Number": "(313) 963-9116" }, "geometry": { "type": "Point", "coordinates": [ -83.048696460059006, 42.329253237366203 ] } },
{ "type": "Feature", "properties": { "ObjectID": 310, "X": 13476291.4776903, "Y": 303677.708989501, "Name": "Burger King", "Street_Address": "1425 W Lafayette Blvd", "City_1": "Detroit", "State_1": "MI", "Zip_1": "48209", "Phone_Number": "(313) 965-5464" }, "geometry": { "type": "Point", "coordinates": [ -83.061473884572095, 42.325789901701299 ] } },
{ "type": "Feature", "properties": { "ObjectID": 311, "X": 13476812.392416, "Y": 315821.17529400002, "Name": "Royal Grill Restaurant", "Street_Address": "540 E Warren Ave", "City_1": "Detroit", "State_1": "MI", "Zip_1": "48201", "Phone_Number": "(313) 831-3555" }, "geometry": { "type": "Point", "coordinates": [ -83.058850247460001, 42.359086631973099 ] } },
{ "type": "Feature", "properties": { "ObjectID": 312, "X": 13482358.9376, "Y": 304876.434603, "Name": "Burger King", "Street_Address": "400 Renaissance Ctr", "City_1": "Detroit", "State_1": "MI", "Zip_1": "48243", "Phone_Number": "(313) 392-9362" }, "geometry": { "type": "Point", "coordinates": [ -83.038969333293494, 42.328818601662803 ] } },
{ "type": "Feature", "properties": { "ObjectID": 313, "X": 13476829.188798999, "Y": 315831.467634, "Name": "China House", "Street_Address": "550 E Warren Ave", "City_1": "Detroit", "State_1": "MI", "Zip_1": "48201", "Phone_Number": "(313) 831-8888" }, "geometry": { "type": "Point", "coordinates": [ -83.058787516591295, 42.359114155800498 ] } },
{ "type": "Feature", "properties": { "ObjectID": 314, "X": 13476322.866606001, "Y": 303449.24239700002, "Name": "Happy Four Party Store", "Street_Address": "1444 W Fort St", "City_1": "Detroit", "State_1": "MI", "Zip_1": "48216", "Phone_Number": null }, "geometry": { "type": "Point", "coordinates": [ -83.061370920952101, 42.325161705922802 ] } },
{ "type": "Feature", "properties": { "ObjectID": 315, "X": 13473989.310597001, "Y": 316593.45360100002, "Name": "Byblos Cafe & Grill", "Street_Address": "87 W Palmer", "City_1": "Detroit", "State_1": "MI", "Zip_1": "48202", "Phone_Number": "(313) 831-4420" }, "geometry": { "type": "Point", "coordinates": [ -83.069250286099603, 42.361325442331001 ] } },
{ "type": "Feature", "properties": { "ObjectID": 316, "X": 13473975.033957999, "Y": 305781.09568700002, "Name": "Corktown Tavern", "Street_Address": "1716 Michigan Ave", "City_1": "Detroit", "State_1": "MI", "Zip_1": "48216", "Phone_Number": "(313) 964-5103" }, "geometry": { "type": "Point", "coordinates": [ -83.069919268485705, 42.3316593429563 ] } },
{ "type": "Feature", "properties": { "ObjectID": 317, "X": 13479258.900121, "Y": 304709.23247699998, "Name": "Six Pack Bar & Grill", "Street_Address": "404 W Congress St", "City_1": "Detroit", "State_1": "MI", "Zip_1": "48226", "Phone_Number": "(313) 964-1333" }, "geometry": { "type": "Point", "coordinates": [ -83.050442078362906, 42.328493403261902 ] } },
{ "type": "Feature", "properties": { "ObjectID": 318, "X": 13482323.486976, "Y": 311348.68765400001, "Name": "Butchers Inn", "Street_Address": "1489 Winder St", "City_1": "Detroit", "State_1": "MI", "Zip_1": "48207", "Phone_Number": null }, "geometry": { "type": "Point", "coordinates": [ -83.038722909946102, 42.346578457698101 ] } },
{ "type": "Feature", "properties": { "ObjectID": 319, "X": 13479299.166425001, "Y": 306025.92092200002, "Name": "The Boulevard Room", "Street_Address": "1114 Washington Blvd", "City_1": "Detroit", "State_1": "MI", "Zip_1": "48226", "Phone_Number": "(313) 442-1600" }, "geometry": { "type": "Point", "coordinates": [ -83.050217052325905, 42.332104363172903 ] } },
{ "type": "Feature", "properties": { "ObjectID": 320, "X": 13476575.644641999, "Y": 303537.34504599997, "Name": "Haz Subs and Salads", "Street_Address": "1360 W Fort St", "City_1": "Detroit", "State_1": "MI", "Zip_1": "48226", "Phone_Number": null }, "geometry": { "type": "Point", "coordinates": [ -83.060431215681902, 42.325392682234501 ] } },
{ "type": "Feature", "properties": { "ObjectID": 321, "X": 13482358.9376, "Y": 304876.434603, "Name": "Presto Gourmet Deli", "Street_Address": "400 Renaissance Ctr", "City_1": "Detroit", "State_1": "MI", "Zip_1": "48243", "Phone_Number": "(313) 567-6700" }, "geometry": { "type": "Point", "coordinates": [ -83.038969333293494, 42.328818601662803 ] } },
{ "type": "Feature", "properties": { "ObjectID": 322, "X": 13482323.486976, "Y": 311348.68765400001, "Name": "BB’s Butchers Inn", "Street_Address": "1489 Winder St", "City_1": "Detroit", "State_1": "MI", "Zip_1": "48207", "Phone_Number": "(313) 502-5148" }, "geometry": { "type": "Point", "coordinates": [ -83.038722909946102, 42.346578457698101 ] } },
{ "type": "Feature", "properties": { "ObjectID": 323, "X": 13485735.167722, "Y": 307351.61253799999, "Name": "Chill Martini Bistro", "Street_Address": "2000 E Woodbridge", "City_1": "Detroit", "State_1": "MI", "Zip_1": "48207", "Phone_Number": null }, "geometry": { "type": "Point", "coordinates": [ -83.026339310333, 42.33546310242 ] } },
{ "type": "Feature", "properties": { "ObjectID": 324, "X": 13490611.464875, "Y": 311758.520173, "Name": "Southern Fires Bistro & Lounge", "Street_Address": "575 Bellevue St", "City_1": "Detroit", "State_1": "MI", "Zip_1": "48207", "Phone_Number": null }, "geometry": { "type": "Point", "coordinates": [ -83.008043331756497, 42.347340090674798 ] } },
{ "type": "Feature", "properties": { "ObjectID": 326, "X": 13482193.808239, "Y": 305140.64081800001, "Name": "Subway", "Street_Address": "200 Renaissance Ctr", "City_1": "Detroit", "State_1": "MI", "Zip_1": "48243", "Phone_Number": "(313) 567-3345" }, "geometry": { "type": "Point", "coordinates": [ -83.039564533576197, 42.329550664116802 ] } },
{ "type": "Feature", "properties": { "ObjectID": 327, "X": 13482193.808239, "Y": 305140.64081800001, "Name": "Gyro Land", "Street_Address": "200 Rennaissance Ctr", "City_1": "Detroit", "State_1": "MI", "Zip_1": "48243", "Phone_Number": null }, "geometry": { "type": "Point", "coordinates": [ -83.039564533576197, 42.329550664116802 ] } },
{ "type": "Feature", "properties": { "ObjectID": 329, "X": 13485578.314157, "Y": 307788.191345, "Name": "Mainstreet Grill & Coney Island", "Street_Address": "1985 E Jefferson Ave", "City_1": "Detroit", "State_1": "MI", "Zip_1": "48207", "Phone_Number": null }, "geometry": { "type": "Point", "coordinates": [ -83.026893675555101, 42.3366678183367 ] } },
{ "type": "Feature", "properties": { "ObjectID": 330, "X": 13475561.030415, "Y": 313500.558892, "Name": "Firehouse Subs", "Street_Address": "4501 Woodward Ave", "City_1": "Detroit", "State_1": "MI", "Zip_1": "48201", "Phone_Number": "(313) 818-3681" }, "geometry": { "type": "Point", "coordinates": [ -83.063612574209003, 42.352772629365099 ] } },
{ "type": "Feature", "properties": { "ObjectID": 332, "X": 13475561.030415, "Y": 313500.558892, "Name": "Starter’s Bar and Grill", "Street_Address": "4501 Woodward Ave", "City_1": "Detroit", "State_1": "MI", "Zip_1": "48201", "Phone_Number": "(313) 831-3100" }, "geometry": { "type": "Point", "coordinates": [ -83.063612574209003, 42.352772629365099 ] } },
{ "type": "Feature", "properties": { "ObjectID": 333, "X": 13487049.838082001, "Y": 308695.22529899998, "Name": "IHOP", "Street_Address": "2701 E Jefferson Ave", "City_1": "Detroit", "State_1": "MI", "Zip_1": "48207", "Phone_Number": null }, "geometry": { "type": "Point", "coordinates": [ -83.021398133296003, 42.339092110779603 ] } },
{ "type": "Feature", "properties": { "ObjectID": 334, "X": 13478145.040375, "Y": 309597.62635600002, "Name": "District Market Detroit", "Street_Address": "2645 Woodward Ave", "City_1": "Detroit", "State_1": "MI", "Zip_1": "48201", "Phone_Number": null }, "geometry": { "type": "Point", "coordinates": [ -83.054279018492295, 42.341953739093697 ] } },
{ "type": "Feature", "properties": { "ObjectID": 335, "X": 13480202.051036, "Y": 305062.576451, "Name": "Domino’s Pizza", "Street_Address": "535 Griswold St", "City_1": "Detroit", "State_1": "MI", "Zip_1": "48226", "Phone_Number": "(313) 962-9100" }, "geometry": { "type": "Point", "coordinates": [ -83.046934106122805, 42.329422383313599 ] } },
{ "type": "Feature", "properties": { "ObjectID": 336, "X": 13480502.497561, "Y": 306605.62599899998, "Name": "Jimmy John’s", "Street_Address": "95 Monroe St", "City_1": "Detroit", "State_1": "MI", "Zip_1": "48226", "Phone_Number": "(313) 963-9131" }, "geometry": { "type": "Point", "coordinates": [ -83.045733600487793, 42.333643221435302 ] } },
{ "type": "Feature", "properties": { "ObjectID": 337, "X": 13476552.563206, "Y": 306423.38043800002, "Name": "Relish at Breeze", "Street_Address": "1777 Third St", "City_1": "Detroit", "State_1": "MI", "Zip_1": "48226", "Phone_Number": "(877) 888-2121" }, "geometry": { "type": "Point", "coordinates": [ -83.060350974968301, 42.3333122916017 ] } },
{ "type": "Feature", "properties": { "ObjectID": 339, "X": 13481691.732628999, "Y": 306958.66223800002, "Name": "Stack’d", "Street_Address": "555 E Lafayette Ave", "City_1": "Detroit", "State_1": "MI", "Zip_1": "48226", "Phone_Number": "(313) 223-2999" }, "geometry": { "type": "Point", "coordinates": [ -83.041315254319301, 42.334560586345802 ] } },
{ "type": "Feature", "properties": { "ObjectID": 340, "X": 13480519.842654999, "Y": 305685.00463099999, "Name": "Subway", "Street_Address": "660 Woodward Ave", "City_1": "Detroit", "State_1": "MI", "Zip_1": "48226", "Phone_Number": "(313) 963-7770" }, "geometry": { "type": "Point", "coordinates": [ -83.045722877894804, 42.3311165053235 ] } },
{ "type": "Feature", "properties": { "ObjectID": 342, "X": 13475239.65508, "Y": 315197.758218, "Name": "5057atMaccabees", "Street_Address": "5057 Woodward", "City_1": "Detroit", "State_1": "MI", "Zip_1": "48202", "Phone_Number": "(313) 831-9311" }, "geometry": { "type": "Point", "coordinates": [ -83.0647042960844, 42.357443003524402 ] } },
{ "type": "Feature", "properties": { "ObjectID": 344, "X": 13476350.232734, "Y": 310340.10117500002, "Name": "COOP Farm to Table", "Street_Address": "474 Peterboro St", "City_1": "Detroit", "State_1": "MI", "Zip_1": "48201", "Phone_Number": null }, "geometry": { "type": "Point", "coordinates": [ -83.060874533792799, 42.344067496386401 ] } },
{ "type": "Feature", "properties": { "ObjectID": 345, "X": 13466401.757847, "Y": 301241.54386400001, "Name": "Chicago’s Pizza", "Street_Address": "4650 W Vernor Hwy", "City_1": "Detroit", "State_1": "MI", "Zip_1": "48209", "Phone_Number": "(313) 843-3777" }, "geometry": { "type": "Point", "coordinates": [ -83.0981775998751, 42.319520372039598 ] } },
{ "type": "Feature", "properties": { "ObjectID": 346, "X": 13480178.324881, "Y": 305232.810153, "Name": "Papa Romano’s Pizza", "Street_Address": "615 Griswold St", "City_1": "Detroit", "State_1": "MI", "Zip_1": "48226", "Phone_Number": "(313) 964-7777" }, "geometry": { "type": "Point", "coordinates": [ -83.047011973061601, 42.329890485028002 ] } },
{ "type": "Feature", "properties": { "ObjectID": 347, "X": 13469769.841878001, "Y": 302643.74209499999, "Name": "La Michoacana Tortilla Bakery", "Street_Address": "3428 Bagley St", "City_1": "Detroit", "State_1": "MI", "Zip_1": "48216", "Phone_Number": "(313) 554-4450" }, "geometry": { "type": "Point", "coordinates": [ -83.085646247106496, 42.323227775878898 ] } },
{ "type": "Feature", "properties": { "ObjectID": 348, "X": 13475170.212316999, "Y": 314866.83018200001, "Name": "Epicurus Restaurant of Wayne state", "Street_Address": "111 W Warren Ave", "City_1": "Detroit", "State_1": "MI", "Zip_1": "48201", "Phone_Number": "(313) 832-0133" }, "geometry": { "type": "Point", "coordinates": [ -83.064980124370294, 42.3565379576441 ] } },
{ "type": "Feature", "properties": { "ObjectID": 350, "X": 13480738.49511, "Y": 305996.52200499998, "Name": "Domino’s Pizza", "Street_Address": "65 Cadillac Sq", "City_1": "Detroit", "State_1": "MI", "Zip_1": "48226", "Phone_Number": "(313) 962-5600" }, "geometry": { "type": "Point", "coordinates": [ -83.044896246232199, 42.3319618196577 ] } },
{ "type": "Feature", "properties": { "ObjectID": 351, "X": 13481470.868802, "Y": 312920.53717800003, "Name": "Amore de Roma", "Street_Address": "3401 Riopelle St", "City_1": "Detroit", "State_1": "MI", "Zip_1": "48207", "Phone_Number": "(313) 831-5940" }, "geometry": { "type": "Point", "coordinates": [ -83.041785050071397, 42.350928097715801 ] } },
{ "type": "Feature", "properties": { "ObjectID": 352, "X": 13474059.334419001, "Y": 305588.86143799999, "Name": "Subway", "Street_Address": "1715 Michigan Ave", "City_1": "Detroit", "State_1": "MI", "Zip_1": "48216", "Phone_Number": "(313) 965-2614" }, "geometry": { "type": "Point", "coordinates": [ -83.069618486650199, 42.331128331651598 ] } },
{ "type": "Feature", "properties": { "ObjectID": 353, "X": 13482090.327715, "Y": 304715.70891099999, "Name": "River Cafe", "Street_Address": "300 Renaissance Ctr", "City_1": "Detroit", "State_1": "MI", "Zip_1": "48243", "Phone_Number": null }, "geometry": { "type": "Point", "coordinates": [ -83.039971942214905, 42.328389227311099 ] } },
{ "type": "Feature", "properties": { "ObjectID": 354, "X": 13475624.756233601, "Y": 314148.80085301399, "Name": "Bolero Latin Cuisine", "Street_Address": "51 West Forest Ave", "City_1": "Detroit", "State_1": "MI", "Zip_1": "48202", "Phone_Number": "(313) 800-5059" }, "geometry": { "type": "Point", "coordinates": [ -83.063339719518396, 42.3545485517527 ] } },
{ "type": "Feature", "properties": { "ObjectID": 355, "X": 13472779.022981999, "Y": 315796.06605000002, "Name": "Al Basha Subs - Wayne State Univ", "Street_Address": "5122 Anthony Wayne Dr", "City_1": "Detroit", "State_1": "MI", "Zip_1": "48202", "Phone_Number": "(313) 833-0000" }, "geometry": { "type": "Point", "coordinates": [ -83.073773249308402, 42.359188675249797 ] } },
{ "type": "Feature", "properties": { "ObjectID": 356, "X": 13474065.995239999, "Y": 316306.59703300003, "Name": "Old Campus Restaurant", "Street_Address": "5470 Cass Ave", "City_1": "Detroit", "State_1": "MI", "Zip_1": "48202", "Phone_Number": "(313) 832-4817" }, "geometry": { "type": "Point", "coordinates": [ -83.068982938826593, 42.3605351288994 ] } },
{ "type": "Feature", "properties": { "ObjectID": 358, "X": 13474880.828067999, "Y": 314483.00458299997, "Name": "Byblos Cafe & Grill II", "Street_Address": "4830 Cass Ave", "City_1": "Detroit", "State_1": "MI", "Zip_1": "48201", "Phone_Number": "(313) 292-5678" }, "geometry": { "type": "Point", "coordinates": [ -83.066072601192303, 42.355497098689298 ] } },
{ "type": "Feature", "properties": { "ObjectID": 359, "X": 13474550.515937001, "Y": 308622.41151100001, "Name": "Grand River Deli & Burgers", "Street_Address": "2901 Grand River Ave", "City_1": "Detroit", "State_1": "MI", "Zip_1": "48201", "Phone_Number": null }, "geometry": { "type": "Point", "coordinates": [ -83.067629065308694, 42.339430937035303 ] } },
{ "type": "Feature", "properties": { "ObjectID": 360, "X": 13478628.309319999, "Y": 304966.07465700002, "Name": "Bliss Sunday Brunch", "Street_Address": "525 W Lafayette Blvd", "City_1": "Detroit", "State_1": "MI", "Zip_1": "48226", "Phone_Number": "(313) 499-0100" }, "geometry": { "type": "Point", "coordinates": [ -83.052758994875603, 42.329225146120102 ] } },
{ "type": "Feature", "properties": { "ObjectID": 361, "X": 13478496.222108001, "Y": 305666.428595, "Name": "Subway", "Street_Address": "477 Michigan Ave", "City_1": "Detroit", "State_1": "MI", "Zip_1": "48226", "Phone_Number": "(313) 475-3139" }, "geometry": { "type": "Point", "coordinates": [ -83.053207015788303, 42.331152410470096 ] } },
{ "type": "Feature", "properties": { "ObjectID": 362, "X": 13480197.536734, "Y": 313051.58673600003, "Name": "McDonald’s", "Street_Address": "1000 Mack Ave", "City_1": "Detroit", "State_1": "MI", "Zip_1": "48207", "Phone_Number": "(313) 832-4100" }, "geometry": { "type": "Point", "coordinates": [ -83.046487540454194, 42.351342551813303 ] } },
{ "type": "Feature", "properties": { "ObjectID": 363, "X": 13476358.530865001, "Y": 313260.43488999997, "Name": "Passport Pizza", "Street_Address": "4200 Woodward Ave", "City_1": "Detroit", "State_1": "MI", "Zip_1": "48201", "Phone_Number": "(313) 494-5200" }, "geometry": { "type": "Point", "coordinates": [ -83.060676282008302, 42.352079876458497 ] } },
{ "type": "Feature", "properties": { "ObjectID": 364, "X": 13468618.747966999, "Y": 302380.449249, "Name": "Amicci’s Pizza", "Street_Address": "3849 W Vernor Hwy", "City_1": "Detroit", "State_1": "MI", "Zip_1": "48216", "Phone_Number": "(313) 842-7373" }, "geometry": { "type": "Point", "coordinates": [ -83.089917086626201, 42.3225533349081 ] } },
{ "type": "Feature", "properties": { "ObjectID": 365, "X": 13480737.63167, "Y": 305301.42881900002, "Name": "Crossroads Cafe", "Street_Address": "500 Woodward Ave", "City_1": "Detroit", "State_1": "MI", "Zip_1": "48226", "Phone_Number": "(313) 222-6192" }, "geometry": { "type": "Point", "coordinates": [ -83.044939794713699, 42.330054684314099 ] } },
{ "type": "Feature", "properties": { "ObjectID": 366, "X": 13474638.633216999, "Y": 314871.375015, "Name": "La Pita Fresh", "Street_Address": "5056 Cass Ave", "City_1": "Detroit", "State_1": "MI", "Zip_1": "48202", "Phone_Number": "(313) 831-4550" }, "geometry": { "type": "Point", "coordinates": [ -83.066946375308703, 42.356572962742298 ] } },
{ "type": "Feature", "properties": { "ObjectID": 367, "X": 13489788.057415999, "Y": 309927.12878899998, "Name": "Jet’s Pizza", "Street_Address": "3420 E Jefferson Ave", "City_1": "Detroit", "State_1": "MI", "Zip_1": "48207", "Phone_Number": null }, "geometry": { "type": "Point", "coordinates": [ -83.011198011398903, 42.342351635488598 ] } },
{ "type": "Feature", "properties": { "ObjectID": 368, "X": 13475158.533645, "Y": 314861.38067699998, "Name": "Olympic Grill", "Street_Address": "119 W Warren Ave", "City_1": "Detroit", "State_1": "MI", "Zip_1": "48201", "Phone_Number": "(313) 832-5809" }, "geometry": { "type": "Point", "coordinates": [ -83.065023639125599, 42.356523500953998 ] } },
{ "type": "Feature", "properties": { "ObjectID": 369, "X": 13476218.650415, "Y": 303221.57068399998, "Name": "Chester Fried Chicken", "Street_Address": "1500 W Fort St", "City_1": "Detroit", "State_1": "MI", "Zip_1": "48216", "Phone_Number": null }, "geometry": { "type": "Point", "coordinates": [ -83.061769308943099, 42.324541458522503 ] } },
{ "type": "Feature", "properties": { "ObjectID": 370, "X": 13481927.400824999, "Y": 304977.71265599999, "Name": "McDonald’s", "Street_Address": "100 Renaissance Ctr", "City_1": "Detroit", "State_1": "MI", "Zip_1": "48243", "Phone_Number": "(313) 567-2214" }, "geometry": { "type": "Point", "coordinates": [ -83.040559134448799, 42.329115146378903 ] } },
{ "type": "Feature", "properties": { "ObjectID": 371, "X": 13477962.356908999, "Y": 313800.48277499998, "Name": "Subway", "Street_Address": "4201 Saint Antoine St", "City_1": "Detroit", "State_1": "MI", "Zip_1": "48201", "Phone_Number": "(313) 831-8142" }, "geometry": { "type": "Point", "coordinates": [ -83.0547124321306, 42.353493221567298 ] } },
{ "type": "Feature", "properties": { "ObjectID": 372, "X": 13480424.554, "Y": 305121.46457100002, "Name": "The Guardian - Zingerman’s On Tap", "Street_Address": "500 Griswold St", "City_1": "Detroit", "State_1": "MI", "Zip_1": "48226", "Phone_Number": "(313) 209-4497" }, "geometry": { "type": "Point", "coordinates": [ -83.046107928890095, 42.329574385191499 ] } },
{ "type": "Feature", "properties": { "ObjectID": 373, "X": 13474852.861012001, "Y": 316286.903231, "Name": "Detroit Pizza Company", "Street_Address": "15 E Kirby St", "City_1": "Detroit", "State_1": "MI", "Zip_1": "48202", "Phone_Number": "(313) 872-9000" }, "geometry": { "type": "Point", "coordinates": [ -83.066072966545207, 42.360447776445604 ] } },
{ "type": "Feature", "properties": { "ObjectID": 374, "X": 13477370.277557001, "Y": 312758.95694800001, "Name": "Wendy’s", "Street_Address": "3990 John R St", "City_1": "Detroit", "State_1": "MI", "Zip_1": "48201", "Phone_Number": "(313) 832-7676" }, "geometry": { "type": "Point", "coordinates": [ -83.056962584150796, 42.350660809544202 ] } },
{ "type": "Feature", "properties": { "ObjectID": 375, "X": 13474709.323135, "Y": 313029.583667, "Name": "Midtown Kabob House", "Street_Address": "4445 2nd Ave", "City_1": "Detroit", "State_1": "MI", "Zip_1": "48201", "Phone_Number": "(313) 262-6204" }, "geometry": { "type": "Point", "coordinates": [ -83.066790069891198, 42.351516505726998 ] } },
{ "type": "Feature", "properties": { "ObjectID": 376, "X": 13469112.923157999, "Y": 318019.45301400003, "Name": "Papa’s Pizza & BBQ", "Street_Address": "2697 Grand Blvd", "City_1": "Detroit", "State_1": "MI", "Zip_1": "48208", "Phone_Number": null }, "geometry": { "type": "Point", "coordinates": [ -83.087211143741598, 42.365442843351602 ] } },
{ "type": "Feature", "properties": { "ObjectID": 377, "X": 13491730.949523, "Y": 311519.71739900002, "Name": "Pekin Pavilion", "Street_Address": "6905 E Jefferson Ave", "City_1": "Detroit", "State_1": "MI", "Zip_1": "48207", "Phone_Number": null }, "geometry": { "type": "Point", "coordinates": [ -83.003916895041797, 42.346635231882097 ] } },
{ "type": "Feature", "properties": { "ObjectID": 378, "X": 13472866.743531, "Y": 309681.19489300001, "Name": "Motor City Grill", "Street_Address": "3641 Grand River Ave", "City_1": "Detroit", "State_1": "MI", "Zip_1": "48208", "Phone_Number": null }, "geometry": { "type": "Point", "coordinates": [ -83.073796138741699, 42.342407122112299 ] } },
{ "type": "Feature", "properties": { "ObjectID": 379, "X": 13477711.135353001, "Y": 310762.77954399999, "Name": "Bakersfield Tacos", "Street_Address": "3100 Woodward Ave", "City_1": "Detroit", "State_1": "MI", "Zip_1": "48201", "Phone_Number": "(313) 974-7040" }, "geometry": { "type": "Point", "coordinates": [ -83.055816717510197, 42.345169200214798 ] } },
{ "type": "Feature", "properties": { "ObjectID": 381, "X": 13482193.808239, "Y": 305140.64081800001, "Name": "That Sandwich Place", "Street_Address": "200 Renaissance Ctr", "City_1": "Detroit", "State_1": "MI", "Zip_1": "48243", "Phone_Number": "(313) 568-1917" }, "geometry": { "type": "Point", "coordinates": [ -83.039564533576197, 42.329550664116802 ] } },
{ "type": "Feature", "properties": { "ObjectID": 386, "X": 13489931.515582999, "Y": 310942.38137700001, "Name": "Little Caesars Pizza", "Street_Address": "500 Mount Elliott St", "City_1": "Detroit", "State_1": "MI", "Zip_1": "48207", "Phone_Number": null }, "geometry": { "type": "Point", "coordinates": [ -83.010606948640103, 42.345130892370797 ] } },
{ "type": "Feature", "properties": { "ObjectID": 388, "X": 13480995.377982, "Y": 307637.40220499999, "Name": "Subway", "Street_Address": "1401 Beaubien St", "City_1": "Detroit", "State_1": "MI", "Zip_1": "48226", "Phone_Number": "(313) 442-3200" }, "geometry": { "type": "Point", "coordinates": [ -83.043850974319895, 42.336452938825097 ] } },
{ "type": "Feature", "properties": { "ObjectID": 389, "X": 13481691.732628999, "Y": 306958.66223800002, "Name": "The Market District", "Street_Address": "555 E Lafayette Ave", "City_1": "Detroit", "State_1": "MI", "Zip_1": "48226", "Phone_Number": "(313) 223-2999" }, "geometry": { "type": "Point", "coordinates": [ -83.041315254319301, 42.334560586345802 ] } },
{ "type": "Feature", "properties": { "ObjectID": 390, "X": 13466609.391589999, "Y": 300951.54127300001, "Name": "Little Caesars Pizza", "Street_Address": "4635 W Vernor Hwy", "City_1": "Detroit", "State_1": "MI", "Zip_1": "48209", "Phone_Number": "(313) 849-4030" }, "geometry": { "type": "Point", "coordinates": [ -83.097426100150201, 42.3187160785426 ] } },
{ "type": "Feature", "properties": { "ObjectID": 391, "X": 13473795.784092, "Y": 313387.79582200001, "Name": "Jet’s Pizza", "Street_Address": "4718 Anthony Wayne Dr", "City_1": "Detroit", "State_1": "MI", "Zip_1": "48201", "Phone_Number": "(313) 297-7000" }, "geometry": { "type": "Point", "coordinates": [ -83.070148917346202, 42.352538012462603 ] } },
{ "type": "Feature", "properties": { "ObjectID": 392, "X": 13480312.325903, "Y": 304694.9037, "Name": "AK Takeaway", "Street_Address": "150 W Jefferson", "City_1": "Detroit", "State_1": "MI", "Zip_1": "48226", "Phone_Number": "(248) 548-0680" }, "geometry": { "type": "Point", "coordinates": [ -83.046547656851899, 42.328408830946401 ] } },
{ "type": "Feature", "properties": { "ObjectID": 393, "X": 13484270.564030999, "Y": 305478.83454000001, "Name": "Detroit River Tour", "Street_Address": "1340 Atwater St", "City_1": "Detroit", "State_1": "MI", "Zip_1": "48207", "Phone_Number": null }, "geometry": { "type": "Point", "coordinates": [ -83.031865375963406, 42.330388501844098 ] } },
{ "type": "Feature", "properties": { "ObjectID": 394, "X": 13466669.155076999, "Y": 300606.39201900002, "Name": "China House", "Street_Address": "1650 Lansing St", "City_1": "Detroit", "State_1": "MI", "Zip_1": "48209", "Phone_Number": "(313) 297-8888" }, "geometry": { "type": "Point", "coordinates": [ -83.097224387086996, 42.317766588365501 ] } },
{ "type": "Feature", "properties": { "ObjectID": 395, "X": 13480490.943491001, "Y": 307141.00952899997, "Name": "Truth Music Cafe", "Street_Address": "1314 Broadway St", "City_1": "Detroit", "State_1": "MI", "Zip_1": "48226", "Phone_Number": "(313) 828-4500" }, "geometry": { "type": "Point", "coordinates": [ -83.045745262880999, 42.335112685796801 ] } },
{ "type": "Feature", "properties": { "ObjectID": 396, "X": 13482193.808239, "Y": 305140.64081800001, "Name": "Bahn Thai Xpress", "Street_Address": "200 Rennaisance Ctr", "City_1": "Detroit", "State_1": "MI", "Zip_1": "48243", "Phone_Number": "(313) 566-0177" }, "geometry": { "type": "Point", "coordinates": [ -83.039564533576197, 42.329550664116802 ] } },
{ "type": "Feature", "properties": { "ObjectID": 397, "X": 13476138.403314, "Y": 313245.96877600002, "Name": "McDonald’s", "Street_Address": "4235 Woodward Ave", "City_1": "Detroit", "State_1": "MI", "Zip_1": "48201", "Phone_Number": "(313) 832-2449" }, "geometry": { "type": "Point", "coordinates": [ -83.061491387393502, 42.352049551160199 ] } },
{ "type": "Feature", "properties": { "ObjectID": 398, "X": 13490532.465856999, "Y": 310485.04440999997, "Name": "Happy’s Pizza", "Street_Address": "6412 E Jefferson Ave", "City_1": "Detroit", "State_1": "MI", "Zip_1": "48207", "Phone_Number": null }, "geometry": { "type": "Point", "coordinates": [ -83.008411529014396, 42.343849494487898 ] } },
{ "type": "Feature", "properties": { "ObjectID": 399, "X": 13472866.743531, "Y": 309681.19489300001, "Name": "United Cafe Coney Island", "Street_Address": "3641 Grand River Ave", "City_1": "Detroit", "State_1": "MI", "Zip_1": "48208", "Phone_Number": null }, "geometry": { "type": "Point", "coordinates": [ -83.073796138741699, 42.342407122112299 ] } },
{ "type": "Feature", "properties": { "ObjectID": 400, "X": 13476232.294443, "Y": 312659.05098900001, "Name": "Le Petit Zinc", "Street_Address": "70 W Alexandrine St", "City_1": "Detroit", "State_1": "MI", "Zip_1": "48201", "Phone_Number": "(313) 963-2805" }, "geometry": { "type": "Point", "coordinates": [ -83.061177741537506, 42.350435187010497 ] } },
{ "type": "Feature", "properties": { "ObjectID": 401, "X": 13481691.732628999, "Y": 306958.66223800002, "Name": "Cafe Mix", "Street_Address": "555 E Lafayette Ave", "City_1": "Detroit", "State_1": "MI", "Zip_1": "48226", "Phone_Number": "(313) 223-2999" }, "geometry": { "type": "Point", "coordinates": [ -83.041315254319301, 42.334560586345802 ] } },
{ "type": "Feature", "properties": { "ObjectID": 402, "X": 13480737.63167, "Y": 305301.42881900002, "Name": "Sterling Services", "Street_Address": "500 Woodward", "City_1": "Detroit", "State_1": "MI", "Zip_1": "48226", "Phone_Number": "(734) 207-8363" }, "geometry": { "type": "Point", "coordinates": [ -83.044939794713699, 42.330054684314099 ] } },
{ "type": "Feature", "properties": { "ObjectID": 403, "X": 13480906.929448999, "Y": 306001.29444899998, "Name": "Motown Cafe & Grill", "Street_Address": "111 Cadillac Sq", "City_1": "Detroit", "State_1": "MI", "Zip_1": "48226", "Phone_Number": "(313) 962-0718" }, "geometry": { "type": "Point", "coordinates": [ -83.044273114762603, 42.331967656106002 ] } },
{ "type": "Feature", "properties": { "ObjectID": 404, "X": 13467558.9278215, "Y": 312486.22112861299, "Name": "Legends Coney Island", "Street_Address": "Grandriver", "City_1": "Detroit", "State_1": "MI", "Zip_1": "48208", "Phone_Number": null }, "geometry": { "type": "Point", "coordinates": [ -83.093270468486295, 42.350325479871401 ] } },
{ "type": "Feature", "properties": { "ObjectID": 405, "X": 13477370.277557001, "Y": 312758.95694800001, "Name": "Chick-fil-A", "Street_Address": "3990 John R St", "City_1": "Detroit", "State_1": "MI", "Zip_1": "48201", "Phone_Number": null }, "geometry": { "type": "Point", "coordinates": [ -83.056962584150796, 42.350660809544202 ] } },
{ "type": "Feature", "properties": { "ObjectID": 406, "X": 13491139.372466, "Y": 311185.37418599997, "Name": "Wendy’s", "Street_Address": "6601 E Jefferson Ave", "City_1": "Detroit", "State_1": "MI", "Zip_1": "48207", "Phone_Number": null }, "geometry": { "type": "Point", "coordinates": [ -83.006124974591799, 42.345744132874103 ] } },
{ "type": "Feature", "properties": { "ObjectID": 407, "X": 13474517.562392, "Y": 308833.05387399998, "Name": "Marios Restaurant", "Street_Address": "3020 Grand River Ave", "City_1": "Detroit", "State_1": "MI", "Zip_1": "48201", "Phone_Number": "(313) 833-0700" }, "geometry": { "type": "Point", "coordinates": [ -83.067738920347296, 42.340010287833202 ] } },
{ "type": "Feature", "properties": { "ObjectID": 408, "X": 13489079.71496, "Y": 309783.74105399998, "Name": "Peking Express", "Street_Address": "3444 E Jefferson Ave", "City_1": "Detroit", "State_1": "MI", "Zip_1": "48207", "Phone_Number": null }, "geometry": { "type": "Point", "coordinates": [ -83.013826337137502, 42.3419894775245 ] } },
{ "type": "Feature", "properties": { "ObjectID": 409, "X": 13473522.998752, "Y": 301586.18321500003, "Name": "Ella Mae’s Place", "Street_Address": "2251 W Fort St", "City_1": "Detroit", "State_1": "MI", "Zip_1": "48216", "Phone_Number": "(313) 383-9593" }, "geometry": { "type": "Point", "coordinates": [ -83.071829442797707, 42.3201685218026 ] } },
{ "type": "Feature", "properties": { "ObjectID": 410, "X": 13480738.49511, "Y": 305996.52200499998, "Name": "Subway", "Street_Address": "65 Cadillac Sq", "City_1": "Detroit", "State_1": "MI", "Zip_1": "48226", "Phone_Number": "(313) 963-8727" }, "geometry": { "type": "Point", "coordinates": [ -83.044896246232199, 42.3319618196577 ] } },
{ "type": "Feature", "properties": { "ObjectID": 411, "X": 13466213.180818999, "Y": 299295.35186599998, "Name": "El Caporal Taqueria Y Restaurant", "Street_Address": "1414 Junction St", "City_1": "Detroit", "State_1": "MI", "Zip_1": "48209", "Phone_Number": "(313) 551-4920" }, "geometry": { "type": "Point", "coordinates": [ -83.098983157644994, 42.3141882182167 ] } },
{ "type": "Feature", "properties": { "ObjectID": 412, "X": 13488924.782946, "Y": 309432.66391100001, "Name": "Kabob N Grill", "Street_Address": "3250 E Jefferson Ave", "City_1": "Detroit", "State_1": "MI", "Zip_1": "48207", "Phone_Number": null }, "geometry": { "type": "Point", "coordinates": [ -83.014420206517599, 42.341033039697798 ] } },
{ "type": "Feature", "properties": { "ObjectID": 413, "X": 13480525.384438001, "Y": 308862.77330900001, "Name": "The Breadstick Bar and Bistro", "Street_Address": "2000 Brush St", "City_1": "Detroit", "State_1": "MI", "Zip_1": "48226", "Phone_Number": "(313) 262-2896" }, "geometry": { "type": "Point", "coordinates": [ -83.045517974719701, 42.339835319042798 ] } },
{ "type": "Feature", "properties": { "ObjectID": 414, "X": 13477370.277557001, "Y": 312758.95694800001, "Name": "Chick-fil-A", "Street_Address": "3990 John R St", "City_1": "Detroit", "State_1": "MI", "Zip_1": "48201", "Phone_Number": null }, "geometry": { "type": "Point", "coordinates": [ -83.056962584150796, 42.350660809544202 ] } },
{ "type": "Feature", "properties": { "ObjectID": 415, "X": 13478496.222108001, "Y": 305666.428595, "Name": "Subway", "Street_Address": "477 Michigan Ave", "City_1": "Detroit", "State_1": "MI", "Zip_1": "48226", "Phone_Number": "(313) 237-0121" }, "geometry": { "type": "Point", "coordinates": [ -83.053207015788303, 42.331152410470096 ] } },
{ "type": "Feature", "properties": { "ObjectID": 418, "X": 13478961.420107, "Y": 308077.86019099999, "Name": "Delicious Dogs", "Street_Address": "2100 Woodward Ave", "City_1": "Detroit", "State_1": "MI", "Zip_1": "48226", "Phone_Number": null }, "geometry": { "type": "Point", "coordinates": [ -83.051347456535098, 42.337748893894997 ] } },
{ "type": "Feature", "properties": { "ObjectID": 419, "X": 13484883.175192, "Y": 315378.55949299998, "Name": "Gratiot Grill", "Street_Address": "3121 Gratiot Ave", "City_1": "Detroit", "State_1": "MI", "Zip_1": "48207", "Phone_Number": null }, "geometry": { "type": "Point", "coordinates": [ -83.029018401616796, 42.357524266722002 ] } },
{ "type": "Feature", "properties": { "ObjectID": 420, "X": 13476795.596032999, "Y": 315810.88295399997, "Name": "Little Caesar’s Pizza", "Street_Address": "530 E Warren Ave", "City_1": "Detroit", "State_1": "MI", "Zip_1": "48201", "Phone_Number": "(313) 832-2200" }, "geometry": { "type": "Point", "coordinates": [ -83.058912977059705, 42.359059108097 ] } },
{ "type": "Feature", "properties": { "ObjectID": 424, "X": 13477962.356908999, "Y": 313800.48277499998, "Name": "YaYa’s Flame Broiled Chicken", "Street_Address": "4201 St Antoine", "City_1": "Detroit", "State_1": "MI", "Zip_1": "48201", "Phone_Number": "(313) 833-4360" }, "geometry": { "type": "Point", "coordinates": [ -83.0547124321306, 42.353493221567298 ] } },
{ "type": "Feature", "properties": { "ObjectID": 425, "X": 13478811.372482, "Y": 308321.09280500002, "Name": "Jon’s Diner", "Street_Address": "2211 Woodward Ave", "City_1": "Detroit", "State_1": "MI", "Zip_1": "48201", "Phone_Number": "(313) 471-6967" }, "geometry": { "type": "Point", "coordinates": [ -83.0518883230189, 42.338422698890703 ] } },
{ "type": "Feature", "properties": { "ObjectID": 426, "X": 13472779.102870001, "Y": 315795.63540799997, "Name": "Jimmy John’s", "Street_Address": "5118 Anthony Wayne Dr", "City_1": "Detroit", "State_1": "MI", "Zip_1": "48202", "Phone_Number": "(313) 832-7614" }, "geometry": { "type": "Point", "coordinates": [ -83.073772977607405, 42.359187490827303 ] } },
{ "type": "Feature", "properties": { "ObjectID": 427, "X": 13476850.472820001, "Y": 305615.78956800001, "Name": "Mary’s Cafe", "Street_Address": "985 Michigan Ave", "City_1": "Detroit", "State_1": "MI", "Zip_1": "48226", "Phone_Number": "(313) 961-1344" }, "geometry": { "type": "Point", "coordinates": [ -83.059295685777798, 42.331083757021702 ] } },
{ "type": "Feature", "properties": { "ObjectID": 428, "X": 13478496.222108001, "Y": 305666.428595, "Name": "Rich’s Fountain View Cafe", "Street_Address": "477 Michigan Ave", "City_1": "Detroit", "State_1": "MI", "Zip_1": "48226", "Phone_Number": "(313) 963-4684" }, "geometry": { "type": "Point", "coordinates": [ -83.053207015788303, 42.331152410470096 ] } },
{ "type": "Feature", "properties": { "ObjectID": 429, "X": 13477922.847227, "Y": 313279.798067, "Name": "Subway", "Street_Address": "3901 Beaubien St", "City_1": "Detroit", "State_1": "MI", "Zip_1": "48201", "Phone_Number": "(313) 831-1260" }, "geometry": { "type": "Point", "coordinates": [ -83.054888598802094, 42.352066272816998 ] } },
{ "type": "Feature", "properties": { "ObjectID": 430, "X": 13479915.289841, "Y": 305509.09180900001, "Name": "Ana Deli", "Street_Address": "719 Griswold St", "City_1": "Detroit", "State_1": "MI", "Zip_1": "48226", "Phone_Number": "(313) 964-6500" }, "geometry": { "type": "Point", "coordinates": [ -83.047968617267003, 42.330659846860698 ] } },
{ "type": "Feature", "properties": { "ObjectID": 431, "X": 13478811.372482, "Y": 308321.09280500002, "Name": "Little Caesars Pizza", "Street_Address": "2211 Woodward Ave", "City_1": "Detroit", "State_1": "MI", "Zip_1": "48201", "Phone_Number": "(888) 452-5487" }, "geometry": { "type": "Point", "coordinates": [ -83.0518883230189, 42.338422698890703 ] } },
{ "type": "Feature", "properties": { "ObjectID": 432, "X": 13477962.356908999, "Y": 313800.48277499998, "Name": "Hungry Howie’s Pizza", "Street_Address": "4201 St. Antoine", "City_1": "Detroit", "State_1": "MI", "Zip_1": "48201", "Phone_Number": "(313) 528-0010" }, "geometry": { "type": "Point", "coordinates": [ -83.0547124321306, 42.353493221567298 ] } },
{ "type": "Feature", "properties": { "ObjectID": 435, "X": 13482193.808398901, "Y": 305140.640748039, "Name": "Burger King", "Street_Address": "Renaissance Center Food Ct", "City_1": "Detroit", "State_1": "MI", "Zip_1": "48243", "Phone_Number": "(313) 259-8900" }, "geometry": { "type": "Point", "coordinates": [ -83.039564533576197, 42.329550664116802 ] } },
{ "type": "Feature", "properties": { "ObjectID": 437, "X": 13467342.073439, "Y": 312599.36596000002, "Name": "Oscar’s Coney Island", "Street_Address": "5270 Grand River Ave", "City_1": "Detroit", "State_1": "MI", "Zip_1": "48208", "Phone_Number": "(313) 361-5775" }, "geometry": { "type": "Point", "coordinates": [ -83.094066291595297, 42.350644922168101 ] } },
{ "type": "Feature", "properties": { "ObjectID": 438, "X": 13479018.291626001, "Y": 303498.667013, "Name": "Mr. Pita", "Street_Address": "600 Civic Center Dr", "City_1": "Detroit", "State_1": "MI", "Zip_1": "48226", "Phone_Number": "(313) 396-7933" }, "geometry": { "type": "Point", "coordinates": [ -83.051401712536403, 42.325182209375001 ] } },
{ "type": "Feature", "properties": { "ObjectID": 439, "X": 13482358.9376, "Y": 304876.434603, "Name": "Fish City", "Street_Address": "400 Renaissance Ctr Lbby", "City_1": "Detroit", "State_1": "MI", "Zip_1": "48243", "Phone_Number": null }, "geometry": { "type": "Point", "coordinates": [ -83.038969333293494, 42.328818601662803 ] } },
{ "type": "Feature", "properties": { "ObjectID": 440, "X": 13481964.796916001, "Y": 309574.59809711599, "Name": "Deli At Brewery Park", "Street_Address": "1155 Brewery Park Blvd", "City_1": "Detroit", "State_1": "MI", "Zip_1": "48207", "Phone_Number": null }, "geometry": { "type": "Point", "coordinates": [ -83.040153016714001, 42.341726293598597 ] } },
{ "type": "Feature", "properties": { "ObjectID": 441, "X": 13473427.468169, "Y": 314875.29744900001, "Name": "Gold ‘n’ Greens", "Street_Address": "695 Williams Mall", "City_1": "Detroit", "State_1": "MI", "Zip_1": "48202", "Phone_Number": null }, "geometry": { "type": "Point", "coordinates": [ -83.071426712311805, 42.3566349420785 ] } },
{ "type": "Feature", "properties": { "ObjectID": 442, "X": 13483566.980141999, "Y": 312670.77927300002, "Name": "Burger King", "Street_Address": "2155 Gratiot Ave", "City_1": "Detroit", "State_1": "MI", "Zip_1": "48207", "Phone_Number": null }, "geometry": { "type": "Point", "coordinates": [ -83.034046115984296, 42.350152047133498 ] } },
{ "type": "Feature", "properties": { "ObjectID": 443, "X": 13491780.280762, "Y": 311457.56194300001, "Name": "Church’s Fried Chicken", "Street_Address": "6931 E Jefferson Ave", "City_1": "Detroit", "State_1": "MI", "Zip_1": "48207", "Phone_Number": null }, "geometry": { "type": "Point", "coordinates": [ -83.003738152846694, 42.346462501942298 ] } },
{ "type": "Feature", "properties": { "ObjectID": 444, "X": 13476861.890373001, "Y": 317270.29496299999, "Name": "Freshii", "Street_Address": "679 W Kirby St", "City_1": "Detroit", "State_1": "MI", "Zip_1": "48202", "Phone_Number": null }, "geometry": { "type": "Point", "coordinates": [ -83.058583828641801, 42.363060575179198 ] } },
{ "type": "Feature", "properties": { "ObjectID": 445, "X": 13480520.652686, "Y": 307237.15272299998, "Name": "Harmony & Soul", "Street_Address": "1407 Randolph St", "City_1": "Detroit", "State_1": "MI", "Zip_1": "48226", "Phone_Number": "(248) 219-4879" }, "geometry": { "type": "Point", "coordinates": [ -83.045629817126596, 42.335375200716697 ] } },
{ "type": "Feature", "properties": { "ObjectID": 446, "X": 13478582.896141, "Y": 306982.65330200002, "Name": "Bagley Cafe", "Street_Address": "216 Bagley St", "City_1": "Detroit", "State_1": "MI", "Zip_1": "48226", "Phone_Number": "(313) 964-3777" }, "geometry": { "type": "Point", "coordinates": [ -83.052810545933497, 42.334760116719799 ] } },
{ "type": "Feature", "properties": { "ObjectID": 447, "X": 13472312.975958001, "Y": 319746.82470100001, "Name": "La Musique Restaurant", "Street_Address": "3071 W Grand Blvd", "City_1": "Detroit", "State_1": "MI", "Zip_1": "48202", "Phone_Number": null }, "geometry": { "type": "Point", "coordinates": [ -83.075273202842496, 42.370048311604002 ] } },
{ "type": "Feature", "properties": { "ObjectID": 448, "X": 13479534.163988, "Y": 307070.48536699999, "Name": "Peggy Day’s", "Street_Address": "2 John R", "City_1": "Detroit", "State_1": "MI", "Zip_1": "48226", "Phone_Number": null }, "geometry": { "type": "Point", "coordinates": [ -83.048848464108204, 42.335038600665698 ] } },
{ "type": "Feature", "properties": { "ObjectID": 449, "X": 13482419.096082, "Y": 310676.26771, "Name": "Randy’s Sausage", "Street_Address": "1429 Gratiot Ave", "City_1": "Detroit", "State_1": "MI", "Zip_1": "48207", "Phone_Number": null }, "geometry": { "type": "Point", "coordinates": [ -83.0384085147127, 42.344729359181102 ] } },
{ "type": "Feature", "properties": { "ObjectID": 450, "X": 13482193.808239, "Y": 305140.64081800001, "Name": "Sbarro", "Street_Address": "200 Renaissance Ctr", "City_1": "Detroit", "State_1": "MI", "Zip_1": "48243", "Phone_Number": "(313) 259-2666" }, "geometry": { "type": "Point", "coordinates": [ -83.039564533576197, 42.329550664116802 ] } },
{ "type": "Feature", "properties": { "ObjectID": 451, "X": 13471434.042582, "Y": 303455.63871799997, "Name": "Lajalisciense", "Street_Address": "2634 Bagley St", "City_1": "Detroit", "State_1": "MI", "Zip_1": "48216", "Phone_Number": null }, "geometry": { "type": "Point", "coordinates": [ -83.079447112361095, 42.325385795574597 ] } },
{ "type": "Feature", "properties": { "ObjectID": 452, "X": 13481560.184707999, "Y": 307190.66653400002, "Name": "Starbucks", "Street_Address": "546 Monroe Ave", "City_1": "Detroit", "State_1": "MI", "Zip_1": "48226", "Phone_Number": null }, "geometry": { "type": "Point", "coordinates": [ -83.041587555391004, 42.335012881106898 ] } },
{ "type": "Feature", "properties": { "ObjectID": 453, "X": 13473567.241140001, "Y": 315443.77145, "Name": "Student Center", "Street_Address": "5221 Gullen Mall", "City_1": "Detroit", "State_1": "MI", "Zip_1": "48202", "Phone_Number": "(313) 577-4585" }, "geometry": { "type": "Point", "coordinates": [ -83.070877269214407, 42.358188806075702 ] } },
{ "type": "Feature", "properties": { "ObjectID": 454, "X": 13477186.231362, "Y": 315279.36564899998, "Name": "You Name It", "Street_Address": "4707 Saint Antoine St", "City_1": "Detroit", "State_1": "MI", "Zip_1": "48201", "Phone_Number": "(313) 833-9222" }, "geometry": { "type": "Point", "coordinates": [ -83.057498393673796, 42.357584087373098 ] } },
{ "type": "Feature", "properties": { "ObjectID": 455, "X": 13479623.014796, "Y": 306696.338215, "Name": "H & S Deli", "Street_Address": "45 Grand River Ave", "City_1": "Detroit", "State_1": "MI", "Zip_1": "48226", "Phone_Number": "(313) 965-2515" }, "geometry": { "type": "Point", "coordinates": [ -83.048980684234095, 42.333929931193197 ] } },
{ "type": "Feature", "properties": { "ObjectID": 456, "X": 13476322.866606001, "Y": 303449.24239700002, "Name": "Mama Mia Pizzeria", "Street_Address": "1444 W Fort St", "City_1": "Detroit", "State_1": "MI", "Zip_1": "48216", "Phone_Number": null }, "geometry": { "type": "Point", "coordinates": [ -83.061370920952101, 42.325161705922802 ] } },
{ "type": "Feature", "properties": { "ObjectID": 457, "X": 13477304.375102, "Y": 306556.73547000001, "Name": "Rick’s Delight’s", "Street_Address": "660 Plaza Dr", "City_1": "Detroit", "State_1": "MI", "Zip_1": "48226", "Phone_Number": "(313) 964-5616" }, "geometry": { "type": "Point", "coordinates": [ -83.057563111751705, 42.333646144747398 ] } },
{ "type": "Feature", "properties": { "ObjectID": 459, "X": 13480519.842654999, "Y": 305685.00463099999, "Name": "Lunchtime Global", "Street_Address": "660 Woodward Ave", "City_1": "Detroit", "State_1": "MI", "Zip_1": "48226", "Phone_Number": "(313) 963-4871" }, "geometry": { "type": "Point", "coordinates": [ -83.045722877894804, 42.3311165053235 ] } },
{ "type": "Feature", "properties": { "ObjectID": 460, "X": 13467012.036831001, "Y": 301347.71643799997, "Name": "Citgo - Mexican town Deli", "Street_Address": "4415 W Vernor", "City_1": "Detroit", "State_1": "MI", "Zip_1": "48209", "Phone_Number": "(313) 842-2433" }, "geometry": { "type": "Point", "coordinates": [ -83.095915349742995, 42.319786434606897 ] } },
{ "type": "Feature", "properties": { "ObjectID": 461, "X": 13477472.316047, "Y": 305007.11538700003, "Name": "Hollywood Brown Derby Restaurant At Mgm Grand Detroit Casino", "Street_Address": "1300 John C Lodge Fwy", "City_1": "Detroit", "State_1": "MI", "Zip_1": "48226", "Phone_Number": "(313) 394-4423" }, "geometry": { "type": "Point", "coordinates": [ -83.057031210254294, 42.329387174370801 ] } },
{ "type": "Feature", "properties": { "ObjectID": 462, "X": 13478699.216748999, "Y": 308534.59635000001, "Name": "Deck", "Street_Address": "2305 Woodward Ave", "City_1": "Detroit", "State_1": "MI", "Zip_1": "48201", "Phone_Number": "(313) 965-9500" }, "geometry": { "type": "Point", "coordinates": [ -83.052290779109001, 42.339013308652 ] } },
{ "type": "Feature", "properties": { "ObjectID": 463, "X": 13487808.11624, "Y": 307998.92278800003, "Name": "Stoney Creek Brewery & Restaurant", "Street_Address": "237 Joseph Campau St", "City_1": "Detroit", "State_1": "MI", "Zip_1": "48207", "Phone_Number": null }, "geometry": { "type": "Point", "coordinates": [ -83.018635020997394, 42.337148348756998 ] } },
{ "type": "Feature", "properties": { "ObjectID": 464, "X": 13482442.400055001, "Y": 305317.02668700001, "Name": "Pizza Hut", "Street_Address": "500 Renaissance Ctr", "City_1": "Detroit", "State_1": "MI", "Zip_1": "48243", "Phone_Number": "(313) 496-7011" }, "geometry": { "type": "Point", "coordinates": [ -83.038635013326598, 42.330023868941701 ] } },
{ "type": "Feature", "properties": { "ObjectID": 465, "X": 13473567.241140001, "Y": 315443.77145, "Name": "Taco Bell", "Street_Address": "5221 Gullen Mall", "City_1": "Detroit", "State_1": "MI", "Zip_1": "48202", "Phone_Number": "(313) 832-4760" }, "geometry": { "type": "Point", "coordinates": [ -83.070877269214407, 42.358188806075702 ] } },
{ "type": "Feature", "properties": { "ObjectID": 467, "X": 13466832.927121, "Y": 301478.05642400001, "Name": "Vernor Coney Island", "Street_Address": "4430 Vernor Hwy", "City_1": "Detroit", "State_1": "MI", "Zip_1": "48209", "Phone_Number": "(313) 554-2085" }, "geometry": { "type": "Point", "coordinates": [ -83.096570286932604, 42.320151476170402 ] } },
{ "type": "Feature", "properties": { "ObjectID": 468, "X": 13475803.382181, "Y": 314082.660248, "Name": "Checkers", "Street_Address": "4664 Woodward Ave", "City_1": "Detroit", "State_1": "MI", "Zip_1": "48201", "Phone_Number": "(313) 831-1268" }, "geometry": { "type": "Point", "coordinates": [ -83.062682726304104, 42.354359486976399 ] } },
{ "type": "Feature", "properties": { "ObjectID": 469, "X": 13469782.425973, "Y": 310811.76671699999, "Name": "Club HQ", "Street_Address": "4453 14th St", "City_1": "Detroit", "State_1": "MI", "Zip_1": "48208", "Phone_Number": null }, "geometry": { "type": "Point", "coordinates": [ -83.085139991210596, 42.345638558739402 ] } },
{ "type": "Feature", "properties": { "ObjectID": 470, "X": 13489057.816532999, "Y": 309770.54860099999, "Name": "Subway", "Street_Address": "3424 E Jefferson Ave", "City_1": "Detroit", "State_1": "MI", "Zip_1": "48207", "Phone_Number": null }, "geometry": { "type": "Point", "coordinates": [ -83.013908111507305, 42.341954245876401 ] } },
{ "type": "Feature", "properties": { "ObjectID": 471, "X": 13474531.131544, "Y": 316603.29305500002, "Name": "Domino’s Pizza", "Street_Address": "5564 Woodward Ave", "City_1": "Detroit", "State_1": "MI", "Zip_1": "48202", "Phone_Number": "(313) 831-2100" }, "geometry": { "type": "Point", "coordinates": [ -83.067245171670606, 42.361329510383499 ] } },
{ "type": "Feature", "properties": { "ObjectID": 472, "X": 13480529.814812001, "Y": 305592.76789900003, "Name": "Maverick’s Food & Spirits", "Street_Address": "630 Woodward Ave", "City_1": "Detroit", "State_1": "MI", "Zip_1": "48226", "Phone_Number": "(313) 962-1200" }, "geometry": { "type": "Point", "coordinates": [ -83.045691353143695, 42.330863000507598 ] } },
{ "type": "Feature", "properties": { "ObjectID": 473, "X": 13477370.277557001, "Y": 312758.95694800001, "Name": "Quiznos", "Street_Address": "3990 John R Rd", "City_1": "Detroit", "State_1": "MI", "Zip_1": "48201", "Phone_Number": "(313) 831-3400" }, "geometry": { "type": "Point", "coordinates": [ -83.056962584150796, 42.350660809544202 ] } },
{ "type": "Feature", "properties": { "ObjectID": 474, "X": 13486486.528188, "Y": 309294.93191400002, "Name": "Family Fair Deli", "Street_Address": "700 Chene St", "City_1": "Detroit", "State_1": "MI", "Zip_1": "48207", "Phone_Number": null }, "geometry": { "type": "Point", "coordinates": [ -83.023446040880103, 42.340762236441002 ] } },
{ "type": "Feature", "properties": { "ObjectID": 476, "X": 13475013.509134, "Y": 312819.50836500002, "Name": "Shinola Cafe", "Street_Address": "441 W Canfield", "City_1": "Detroit", "State_1": "MI", "Zip_1": "48201", "Phone_Number": "(313) 285-2390" }, "geometry": { "type": "Point", "coordinates": [ -83.065676871198207, 42.350927213396901 ] } },
{ "type": "Feature", "properties": { "ObjectID": 477, "X": 13480737.63167, "Y": 305301.42881900002, "Name": "James A Samborn", "Street_Address": "500 Woodward Ave", "City_1": "Detroit", "State_1": "MI", "Zip_1": "48226", "Phone_Number": "(313) 223-3707" }, "geometry": { "type": "Point", "coordinates": [ -83.044939794713699, 42.330054684314099 ] } },
{ "type": "Feature", "properties": { "ObjectID": 478, "X": 13480081.118601, "Y": 305349.72676699999, "Name": "Epicurean Cafe", "Street_Address": "645 Griswold St", "City_1": "Detroit", "State_1": "MI", "Zip_1": "48226", "Phone_Number": "(313) 965-4998" }, "geometry": { "type": "Point", "coordinates": [ -83.0473646460065, 42.330215457325401 ] } },
{ "type": "Feature", "properties": { "ObjectID": 480, "X": 13475148.356299199, "Y": 305699.95078739501, "Name": "Maxie’s Deli", "Street_Address": "1401 Michigan Ave", "City_1": "Detroit", "State_1": "MI", "Zip_1": "48218", "Phone_Number": "(313) 961-7168" }, "geometry": { "type": "Point", "coordinates": [ -83.065585076488702, 42.331387027875202 ] } },
{ "type": "Feature", "properties": { "ObjectID": 481, "X": 13482193.808239, "Y": 305140.64081800001, "Name": "G & T Management", "Street_Address": "200 Renaissance Ctr", "City_1": "Detroit", "State_1": "MI", "Zip_1": "48243", "Phone_Number": "(313) 259-6720" }, "geometry": { "type": "Point", "coordinates": [ -83.039564533576197, 42.329550664116802 ] } },
{ "type": "Feature", "properties": { "ObjectID": 482, "X": 13478733.268755, "Y": 307993.030034, "Name": "State Bardba Clear Channel Ent", "Street_Address": "2115 Woodward Ave", "City_1": "Detroit", "State_1": "MI", "Zip_1": "48201", "Phone_Number": "(313) 962-3663" }, "geometry": { "type": "Point", "coordinates": [ -83.052196117103307, 42.337525917213497 ] } },
{ "type": "Feature", "properties": { "ObjectID": 483, "X": 13481693.347604999, "Y": 311244.54206499999, "Name": "United Fish Distributors", "Street_Address": "1349 Adelaide St", "City_1": "Detroit", "State_1": "MI", "Zip_1": "48207", "Phone_Number": "(313) 567-6533" }, "geometry": { "type": "Point", "coordinates": [ -83.041059713722802, 42.346319955100299 ] } },
{ "type": "Feature", "properties": { "ObjectID": 484, "X": 13479278.252637999, "Y": 307469.71253800002, "Name": "Flame Grill", "Street_Address": "1570 Woodward Ave", "City_1": "Detroit", "State_1": "MI", "Zip_1": "48226", "Phone_Number": "(313) 962-3466" }, "geometry": { "type": "Point", "coordinates": [ -83.049816400131903, 42.335931084085303 ] } },
{ "type": "Feature", "properties": { "ObjectID": 485, "X": 13467862.184219001, "Y": 305675.22576200002, "Name": "Snack In the Box", "Street_Address": "3526 Michigan Ave", "City_1": "Detroit", "State_1": "MI", "Zip_1": "48216", "Phone_Number": "(313) 285-8171" }, "geometry": { "type": "Point", "coordinates": [ -83.092530020034005, 42.331624955086802 ] } },
{ "type": "Feature", "properties": { "ObjectID": 486, "X": 13473567.241140001, "Y": 315443.77145, "Name": "Wingstop", "Street_Address": "5221 Gullen Mall", "City_1": "Detroit", "State_1": "MI", "Zip_1": "48202", "Phone_Number": null }, "geometry": { "type": "Point", "coordinates": [ -83.070877269214407, 42.358188806075702 ] } },
{ "type": "Feature", "properties": { "ObjectID": 487, "X": 13473978.911171, "Y": 313259.74820700003, "Name": "The Cook’s Crossing", "Street_Address": "4626 3rd St", "City_1": "Detroit", "State_1": "MI", "Zip_1": "48201", "Phone_Number": "(313) 833-0603" }, "geometry": { "type": "Point", "coordinates": [ -83.0694788035252, 42.352178938274101 ] } },
{ "type": "Feature", "properties": { "ObjectID": 488, "X": 13473567.241140001, "Y": 315443.77145, "Name": "Panda Express", "Street_Address": "5221 Gullen Mall", "City_1": "Detroit", "State_1": "MI", "Zip_1": "48202", "Phone_Number": null }, "geometry": { "type": "Point", "coordinates": [ -83.070877269214407, 42.358188806075702 ] } },
{ "type": "Feature", "properties": { "ObjectID": 489, "X": 13476935.557879999, "Y": 311718.19283000001, "Name": "Deli Unique of Detroit", "Street_Address": "3663 Woodward Ave", "City_1": "Detroit", "State_1": "MI", "Zip_1": "48201", "Phone_Number": "(313) 833-8810" }, "geometry": { "type": "Point", "coordinates": [ -83.058630438224597, 42.347823735219599 ] } },
{ "type": "Feature", "properties": { "ObjectID": 490, "X": 13473723.900144, "Y": 314811.07228000002, "Name": "Delilah’s Cafe", "Street_Address": "5155 Gullen Mall", "City_1": "Detroit", "State_1": "MI", "Zip_1": "48202", "Phone_Number": "(313) 833-0118" }, "geometry": { "type": "Point", "coordinates": [ -83.070333754935007, 42.356446202982497 ] } },
{ "type": "Feature", "properties": { "ObjectID": 491, "X": 13469402.953725999, "Y": 317867.81060700002, "Name": "KFC", "Street_Address": "2716 W. Grand Blvd.", "City_1": "Detroit", "State_1": "MI", "Zip_1": "48208", "Phone_Number": null }, "geometry": { "type": "Point", "coordinates": [ -83.086146589307901, 42.365014670003397 ] } },
{ "type": "Feature", "properties": { "ObjectID": 493, "X": 13482524.367125999, "Y": 305697.55380576802, "Name": "Nathan’s", "Street_Address": "E Jefferson", "City_1": "Detroit", "State_1": "MI", "Zip_1": "48207", "Phone_Number": null }, "geometry": { "type": "Point", "coordinates": [ -83.038309713690893, 42.331064396900899 ] } },
{ "type": "Feature", "properties": { "ObjectID": 494, "X": 13492486.707301, "Y": 312034.03757699998, "Name": "Krispy Krunchy Chicken", "Street_Address": "7255 E Jefferson", "City_1": "Detroit", "State_1": "MI", "Zip_1": "48214", "Phone_Number": null }, "geometry": { "type": "Point", "coordinates": [ -83.001090683023307, 42.348012793082503 ] } },
{ "type": "Feature", "properties": { "ObjectID": 495, "X": 13482419.096082, "Y": 310676.26771, "Name": "Central Market Grill", "Street_Address": "1429 Gratiot Ave", "City_1": "Detroit", "State_1": "MI", "Zip_1": "48207", "Phone_Number": null }, "geometry": { "type": "Point", "coordinates": [ -83.0384085147127, 42.344729359181102 ] } },
{ "type": "Feature", "properties": { "ObjectID": 496, "X": 13472775.789790999, "Y": 315811.42864499998, "Name": "Bongs Noodles", "Street_Address": "5260 Anthony Wayne Dr", "City_1": "Detroit", "State_1": "MI", "Zip_1": "48202", "Phone_Number": "(586) 961-2898" }, "geometry": { "type": "Point", "coordinates": [ -83.073784338057806, 42.359230963786402 ] } },
{ "type": "Feature", "properties": { "ObjectID": 498, "X": 13476101.042695001, "Y": 314309.75329299999, "Name": "Forest’s Veggies", "Street_Address": "66 E Forest", "City_1": "Detroit", "State_1": "MI", "Zip_1": "48201", "Phone_Number": "(313) 974-6661" }, "geometry": { "type": "Point", "coordinates": [ -83.061568584890907, 42.354969923480397 ] } },
{ "type": "Feature", "properties": { "ObjectID": 499, "X": 13473361.671259999, "Y": 315355.843016, "Name": "Subway", "Street_Address": "655 West Kirby", "City_1": "Detroit", "State_1": "MI", "Zip_1": "48202", "Phone_Number": "(313) 577-5783" }, "geometry": { "type": "Point", "coordinates": [ -83.071642773983697, 42.357956229838202 ] } },
{ "type": "Feature", "properties": { "ObjectID": 500, "X": 13467558.927846, "Y": 312486.22118699999, "Name": "Legends Grill", "Street_Address": "5210 Grand River Ave", "City_1": "Detroit", "State_1": "MI", "Zip_1": "48208", "Phone_Number": "(313) 265-3456" }, "geometry": { "type": "Point", "coordinates": [ -83.093270468486295, 42.350325479871401 ] } },
{ "type": "Feature", "properties": { "ObjectID": 501, "X": 13477247.506339001, "Y": 313500.82466400001, "Name": "Midtown Express Cafe", "Street_Address": "4160 John R St", "City_1": "Detroit", "State_1": "MI", "Zip_1": "48201", "Phone_Number": "(313) 831-3000" }, "geometry": { "type": "Point", "coordinates": [ -83.057374039323705, 42.352701564535103 ] } },
{ "type": "Feature", "properties": { "ObjectID": 503, "X": 13469769.841878001, "Y": 302643.74209499999, "Name": "Cordoba Victor Hugo", "Street_Address": "3400 Bagley St", "City_1": "Detroit", "State_1": "MI", "Zip_1": "48216", "Phone_Number": "(313) 841-3540" }, "geometry": { "type": "Point", "coordinates": [ -83.085646247106496, 42.323227775878898 ] } },
{ "type": "Feature", "properties": { "ObjectID": 504, "X": 13473576.427058, "Y": 313830.31609199999, "Name": "Little Asia Inc", "Street_Address": "4781 Anthony Wayne Dr", "City_1": "Detroit", "State_1": "MI", "Zip_1": "48201", "Phone_Number": null }, "geometry": { "type": "Point", "coordinates": [ -83.070935155090993, 42.353761455256802 ] } },
{ "type": "Feature", "properties": { "ObjectID": 505, "X": 13466892.495057, "Y": 297614.64785200002, "Name": "Star Coney Island", "Street_Address": "5648 W Fort St", "City_1": "Detroit", "State_1": "MI", "Zip_1": "48209", "Phone_Number": "(313) 843-4060" }, "geometry": { "type": "Point", "coordinates": [ -83.096565548278505, 42.309548623270999 ] } },
{ "type": "Feature", "properties": { "ObjectID": 506, "X": 13473989.310597001, "Y": 316593.45360100002, "Name": "Harmonie Garden Cafe IV", "Street_Address": "87 W Palmer St", "City_1": "Detroit", "State_1": "MI", "Zip_1": "48202", "Phone_Number": "(313) 831-4420" }, "geometry": { "type": "Point", "coordinates": [ -83.069250286099603, 42.361325442331001 ] } },
{ "type": "Feature", "properties": { "ObjectID": 507, "X": 13480723.2022136, "Y": 306949.33491899498, "Name": "The Well", "Street_Address": "1228 Randolph", "City_1": "Detroit", "State_1": "MI", "Zip_1": "48226", "Phone_Number": "313-964-0776" }, "geometry": { "type": "Point", "coordinates": [ -83.044797737331706, 42.334577296367598 ] } },
{ "type": "Feature", "properties": { "ObjectID": 508, "X": 13480832.7938579, "Y": 306730.151302243, "Name": "Acropolis Bakery", "Street_Address": "310 Monroe", "City_1": "Detroit", "State_1": "MI", "Zip_1": "48226", "Phone_Number": "313-964-3345" }, "geometry": { "type": "Point", "coordinates": [ -83.044405191037399, 42.333971184681999 ] } },
{ "type": "Feature", "properties": { "ObjectID": 509, "X": 13480885.962058701, "Y": 306760.53313125501, "Name": "Delux Lounge", "Street_Address": "350 Monroe Ave", "City_1": "Detroit", "State_1": "MI", "Zip_1": "48226", "Phone_Number": "313-962-4200" }, "geometry": { "type": "Point", "coordinates": [ -83.044206808466598, 42.334052254000099 ] } },
{ "type": "Feature", "properties": { "ObjectID": 510, "X": null, "Y": null, "Name": "Coldstone Creamery", "Street_Address": "510 Monroe", "City_1": "Detroit", "State_1": "MI", "Zip_1": "48226", "Phone_Number": null }, "geometry": { "type": "Point", "coordinates": [ -83.041788066460796, 42.334929322705598 ] } },
{ "type": "Feature", "properties": { "ObjectID": 511, "X": 13479367.700331399, "Y": 306288.32475807797, "Name": "Eatori Market", "Street_Address": "1215 Griswold", "City_1": "Detroit", "State_1": "MI", "Zip_1": "48226", "Phone_Number": null }, "geometry": { "type": "Point", "coordinates": [ -83.049848714600401, 42.332821921415203 ] } },
{ "type": "Feature", "properties": { "ObjectID": 513, "X": null, "Y": null, "Name": "Prime and Proper", "Street_Address": "1145 Griswold", "City_1": "Detroit", "State_1": "MI", "Zip_1": "48226", "Phone_Number": "313-636-3100" }, "geometry": { "type": "Point", "coordinates": [ -83.049155674340795, 42.332346381364196 ] } },
{ "type": "Feature", "properties": { "ObjectID": 514, "X": 13480104.507584799, "Y": 306211.51979359001, "Name": "Detroit Water Ice Factory", "Street_Address": "1014 Woodward Ave", "City_1": "Detroit", "State_1": "MI", "Zip_1": "48226", "Phone_Number": "313-888-9106" }, "geometry": { "type": "Point", "coordinates": [ -83.047128479115401, 42.3325795315383 ] } }
]

